id,lat,lon,location,date,time,borough,mode,year
355411,51.295233,-0.131061,On Ditches Lane 1400 metres north of The Junction With Rook Lane,2019-06-01,11:42:00,Croydon, PedalCycle,2019
310697,51.306105,-0.148022,Starrock Road junction with Petworth Close,2017-04-26,07:15:00,Croydon, PedalCycle,2017
310704,51.308056,-0.129292,Mead Way 21 metres south of junction with Tollers Lane,2017-04-24,07:45:00,Croydon, PedalCycle,2017
367157,51.310405,-0.144721,On Harwoods Garage- Brighton Road Near The Junction With Na,2019-11-12,14:20:00,Croydon, PedalCycle,2019
310346,51.310609,0.035676,Main Road 25 metres south of junction with Lebanon Gardens,2017-12-02,14:09:00,Bromley, PedalCycle,2017
310643,51.310816,-0.144533,Brighton Road 21 metres east of junction with Woodplace Lane,2017-03-25,16:08:00,Croydon, PedalCycle,2017
311101,51.312625,-0.152595,Portnalls Road 500 metres south of junction with Portnalls Rise Coulsdon,2017-10-04,12:58:00,Croydon, PedalCycle,2017
729636,51.314833,0.047171,On Jail Lane Near The Junction With The Laurels,2019-07-13,07:40:00,Bromley, PedalCycle,2019
336453,51.315605,0.058571,Single Street junction with Berry's Hill,2018-09-14,14:30:00,Bromley, PedalCycle,2018
718391,51.317262,-0.138733,On Brighton Road Near The Junction With Marlpit Lane,2019-01-27,10:20:00,Croydon, PedalCycle,2019
337543,51.319836,-0.140581,Lion Green Road 20 metres south east of junction with Chisptead Valley Road,2018-12-08,09:20:00,Croydon, PedalCycle,2018
730073,51.320551,0.028696,On Main Road Near The Junction With Main Road,2019-06-29,07:25:00,Bromley, PedalCycle,2019
345860,51.324401,-0.113944,On Higher Drive 30 metres north of The Junction With Cullesden Ro,2019-01-01,21:15:00,Croydon, PedalCycle,2019
337275,51.325769,-0.129145,B2030 junction with Windermere Road,2018-08-23,17:30:00,Croydon, PedalCycle,2018
337022,51.325863,-0.129429,Stoats Nest Road junction with Windemere Road,2018-05-12,12:55:00,Croydon, PedalCycle,2018
310707,51.326086,-0.137744,Woodcote Grove Road junction with The Wend,2017-04-10,13:15:00,Croydon, PedalCycle,2017
310070,51.326127,0.063635,Downe Road 0 metres south of junction with Downe Road,2017-08-05,09:20:00,Bromley, PedalCycle,2017
310828,51.327359,-0.116162,Higher Drive junction with Burcott Road,2017-06-08,21:55:00,Croydon, PedalCycle,2017
310291,51.328339,0.014069,Jewels Hill 100 metres west of junction with Oaklands Lane,2017-11-12,10:25:00,Bromley, PedalCycle,2017
309773,51.328342,0.013925,Jewels Hill 125 metres west of junction with Oaklands Lane,2017-03-18,08:10:00,Bromley, PedalCycle,2017
336514,51.329717,0.012407,Jewels Hill junction with No Junction,2018-10-06,12:30:00,Bromley, PedalCycle,2018
363351,51.330371,-0.324408,On Leatherhead Road 500 metres north of The Junction With The Avenue,2019-09-21,09:49:00,Kingston upon Thames, PedalCycle,2019
337139,51.331312,-0.138394,Smitham Bottom Lane junction with Smitham Downs Road,2018-06-30,08:15:00,Croydon, PedalCycle,2018
337429,51.331402,-0.13839,Smitham Bottom Lane junction with Woodcote Valley Road,2018-10-27,14:00:00,Croydon, PedalCycle,2018
367071,51.332051,0.003221,On Skid Hill Lane Near The Junction With King Henrys Drive,2019-11-10,10:00:00,Croydon, PedalCycle,2019
365154,51.332911,-0.123084,On Brighton Road 50 metres north of The Junction With Brighton Ro,2019-10-16,07:20:00,Croydon, PedalCycle,2019
310921,51.333487,-0.122515,Brighton Road junction with Grovelands Road,2017-07-18,10:34:00,Croydon, PedalCycle,2017
310631,51.333609,-0.015416,Featherbed Lane 900 metres south of junction with Farleigh Dean Crescent,2017-03-31,16:00:00,Croydon, PedalCycle,2017
356351,51.334196,-0.121897,On Brighton Road 70 metres north of The Junction With The Drive,2019-06-14,07:41:00,Croydon, PedalCycle,2019
336303,51.334727,0.003438,Keston Showman's Park junction with Keston Showmans Park,2018-06-30,10:15:00,Bromley, PedalCycle,2018
729515,51.335841,0.053864,On Luxted Road Near The Junction With High Street Downe,2019-07-11,13:38:00,Bromley, PedalCycle,2019
356576,51.336182,-0.113992,On Foxley Hill Road Near The Junction With Foxley Hill Road,2019-06-17,13:45:00,Croydon, PedalCycle,2019
357419,51.337379,0.078814,On Cudham Lane north 200 metres east of The Junction With Cudham,2019-06-28,13:36:00,Bromley, PedalCycle,2019
364296,51.337555,-0.08169,On Sanderstead Hill Near The Junction With Purley Downs Road,2019-10-04,07:47:00,Croydon, PedalCycle,2019
338639,51.338283,-0.31987,Leatherhead Road 250 metres south of junction with Fairoak Lane,2018-05-30,17:27:00,Kingston upon Thames, PedalCycle,2018
357640,51.338296,-0.116776,On Brighton Road Near The Junction With Purley Road,2019-07-01,08:25:00,Croydon, PedalCycle,2019
310741,51.339676,-0.144085,Woodcote Road junction with Foxley Lane,2017-04-30,19:30:00,Croydon, PedalCycle,2017
310910,51.341404,-0.111566,Brighton Road 70 metres north east of junction with Christchurch Road,2017-07-13,08:10:00,Croydon, PedalCycle,2017
337818,51.341619,-0.187799,Banstead Road south 64 metres north east of junction with Downs Road,2018-05-08,16:30:00,Sutton, PedalCycle,2018
337175,51.341842,-0.11083,Brighton Road 120 metres north of junction with Christchurch Road,2018-07-13,08:20:00,Croydon, PedalCycle,2018
369131,51.342461,0.082303,On Cudham Lane north 640 metres south of The Junction With Old Hi,2019-12-07,13:30:00,Bromley, PedalCycle,2019
718475,51.342804,-0.131582,On Foxley Lane 21 metres north of The Junction With Unknown,2019-01-10,07:00:00,Croydon, PedalCycle,2019
349952,51.34385,-0.104875,On Purley Downs Road Near The Junction With Riddlesdown Road,2019-03-08,18:47:00,Croydon, PedalCycle,2019
337508,51.344286,-0.106278,Purley Downs Road junction with Brighton Road,2018-11-25,17:00:00,Croydon, PedalCycle,2018
336906,51.344765,-0.037047,Court Wood Lane junction with Hollywoods,2018-03-10,19:00:00,Croydon, PedalCycle,2018
729374,51.345307,-0.065269,On Queen Hill Road Near The Junction With Farley Road,2019-07-09,15:36:00,Croydon, PedalCycle,2019
354801,51.345834,0.124344,On Sevenoaks Road 30 metres south of The Junction With London Roa,2019-05-22,10:40:00,Bromley, PedalCycle,2019
336553,51.346124,0.137051,Hewitts Roundabout junction with Sevenoaks Road,2018-10-31,17:54:00,Bromley, PedalCycle,2018
309813,51.34618,0.136451,Wheatsheaf Hill junction with A21,2017-04-02,17:20:00,Bromley, PedalCycle,2017
336338,51.346214,0.137056,Hewitts Roundabout junction with A21,2018-07-17,19:45:00,Bromley, PedalCycle,2018
367576,51.346301,-0.111336,On Pampisford Road Near The Junction With Edgehill Road,2019-11-17,11:08:00,Croydon, PedalCycle,2019
352758,51.346345,0.137234,On Hewitts Roundabout Near The Junction With M25,2019-04-22,11:30:00,Bromley, PedalCycle,2019
337932,51.346475,-0.217044,Northey Avenue junction with Cheyham Way,2018-10-13,12:10:00,Sutton, PedalCycle,2018
309941,51.346586,0.136355,Hewitts Roundabout junction with M25,2017-05-23,18:30:00,Bromley, PedalCycle,2017
337784,51.346738,-0.147103,Woodcote Road junction with Sandy Lane,2018-06-05,19:20:00,Sutton, PedalCycle,2018
337693,51.347402,-0.2071,Northey Avenue junction with Burdon Lane,2018-03-15,17:53:00,Sutton, PedalCycle,2018
311737,51.347487,-0.20681,Northey Avenue junction with Burdon Lane,2017-11-30,17:30:00,Sutton, PedalCycle,2017
311727,51.34749,-0.206953,Northey Avenue junction with Burdon Lane,2017-11-29,18:33:00,Sutton, PedalCycle,2017
337891,51.347608,-0.202928,Dorset Road junction with Avenue Road,2018-09-07,07:45:00,Sutton, PedalCycle,2018
368471,51.347709,-0.194868,On Brighton Road Near The Junction With Chiltern Road,2019-11-29,11:20:00,Sutton, PedalCycle,2019
337122,51.347745,-0.048552,Pixton Way junction with Selsdon Park Road,2018-06-24,02:29:00,Croydon, PedalCycle,2018
311599,51.34783,-0.14792,Woodmansterne Lane junction with Woodcote Road,2017-08-10,08:30:00,Sutton, PedalCycle,2017
370514,51.347863,-0.147747,On Woodcote Road Near The Junction With Woodmansterne Lane,2019-12-29,12:45:00,Sutton, PedalCycle,2019
364438,51.348937,0.033612,On Church Road Near The Junction With Church Road,2019-10-06,12:00:00,Bromley, PedalCycle,2019
309769,51.349002,0.030915,Jackass Lane junction with Blackness Lane,2017-02-14,17:50:00,Bromley, PedalCycle,2017
336746,51.349276,-0.043317,Selsdon Park Road junction with Farnborough Avenue,2018-01-17,07:16:00,Croydon, PedalCycle,2018
337323,51.349429,-0.101758,Kingsdown Avenue 70 metres west of junction with Brighton Road The Nearest Classified,2018-09-15,13:35:00,Croydon, PedalCycle,2018
354249,51.349907,0.088385,On Old Hill Near The Junction With Sevenoaks Road Roundabout,2019-05-13,17:32:00,Bromley, PedalCycle,2019
370329,51.350188,0.088728,On High Street Near The Junction With Sevenoaks Road,2019-12-24,08:35:00,Bromley, PedalCycle,2019
310734,51.351187,-0.099244,Brighton Road 21 metres north of junction with N/A,2017-05-09,07:08:00,Croydon, PedalCycle,2017
337012,51.351366,-0.039207,Selsdon Park Road junction with Holmbury Grove,2018-05-08,06:40:00,Croydon, PedalCycle,2018
336124,51.351666,0.006762,Layhams Road 350 metres south of junction with north Pole Lane,2018-03-25,13:10:00,Bromley, PedalCycle,2018
337409,51.351811,-0.098931,Brighton Road 38 metres south of junction with Churchhill Road,2018-10-16,16:44:00,Croydon, PedalCycle,2018
310513,51.352076,-0.098633,Brighton Road junction with Churchill Road,2017-02-06,08:30:00,Croydon, PedalCycle,2017
336805,51.352078,-0.098776,Brighton Road 35 metres south of junction with Churchill Road,2018-02-06,07:31:00,Croydon, PedalCycle,2018
337754,51.352221,-0.158371,Dalmeny Road junction with Mount Park,2018-05-09,07:50:00,Sutton, PedalCycle,2018
311229,51.3527,-0.09832,Brighton Road junction with St Augustines Avenue,2017-11-17,07:30:00,Croydon, PedalCycle,2017
362383,51.353168,-0.215434,On Sandy Lane Near The Junction With Glebe Road,2019-09-09,08:25:00,Sutton, PedalCycle,2019
311450,51.353329,-0.171683,Stanley Park Road junction with Staplehurst Road,2017-04-19,06:51:00,Sutton, PedalCycle,2017
337415,51.353586,-0.037532,Selsdon Park Road junction with Gravel Hill,2018-10-21,08:25:00,Croydon, PedalCycle,2018
309918,51.353931,0.026681,Jackass Lane 625 metres north of junction with Blackness Lane,2017-05-25,17:00:00,Bromley, PedalCycle,2017
336261,51.354181,0.033011,Westerham Road junction with Heathfield Road,2018-06-14,18:00:00,Bromley, PedalCycle,2018
336059,51.354188,0.006585,Layhams Road junction with north Pole Lane,2018-02-17,11:30:00,Bromley, PedalCycle,2018
349207,51.354675,-0.191793,On Brighton Road Near The Junction With Christchurch Park,2019-02-25,19:40:00,Sutton, PedalCycle,2019
310266,51.355802,0.089098,Sevenoaks Road junction with Farnborough Hill,2017-11-02,06:23:00,Bromley, PedalCycle,2017
355100,51.355817,0.0893,On Sevenoaks Road Near The Junction With Glentrammon Road,2019-05-26,09:00:00,Bromley, PedalCycle,2019
310223,51.355887,0.08939,Farnborough Hill Br6 junction with High Street Green Street Green,2017-10-15,09:08:00,Bromley, PedalCycle,2017
369216,51.35606,0.107323,On The Meadway Near The Junction With Warren Road,2019-12-08,17:05:00,Bromley, PedalCycle,2019
370577,51.356133,-0.174472,On Banstead Road Near The Junction With Willis Avenue,2019-12-30,13:10:00,Sutton, PedalCycle,2019
348431,51.356536,0.08172,On Shire Lane 50 metres south of The Junction With Beechwood Aven,2019-02-15,05:00:00,Bromley, PedalCycle,2019
350716,51.356577,-0.129068,On Mollison Drive 100 metres north of The Junction With Roe Way,2019-03-21,08:15:00,Sutton, PedalCycle,2019
337945,51.356586,-0.138662,Sandy Lane south junction with Foresters Drive,2018-10-24,08:17:00,Sutton, PedalCycle,2018
311540,51.356628,-0.204729,Mulgrave Road junction with York Road,2017-07-02,19:02:00,Sutton, PedalCycle,2017
311446,51.35687,-0.17384,Banstead Road 21 metres Swof junction with Waverley Way,2017-03-27,12:35:00,Sutton, PedalCycle,2017
337427,51.357068,-0.052177,Gravel Hill 200 metres south east of junction with Shirley Hills Road,2018-10-26,22:00:00,Croydon, PedalCycle,2018
348315,51.357243,0.106587,On Warren Road Near The Junction With Windsor Drive,2019-02-12,19:55:00,Bromley, PedalCycle,2019
310581,51.357347,-0.031195,Kent Gate Way junction with Lodge Lane,2017-02-19,12:30:00,Croydon, PedalCycle,2017
354538,51.357599,-0.217058,On Ewell Road 21 metres north of The Junction With Unknown,2019-05-17,08:02:00,Sutton, PedalCycle,2019
310755,51.357638,-0.097828,Brighton Road junction with Haling Park Road,2017-04-24,09:00:00,Croydon, PedalCycle,2017
311181,51.357638,-0.097828,Brighton Road junction with Hailing Park Road,2017-11-01,09:33:00,Croydon, PedalCycle,2017
337862,51.357718,-0.147665,Stafford Road 30 metres west of junction with Onslow Gardens,2018-08-16,17:00:00,Sutton, PedalCycle,2018
719083,51.357808,-0.097749,On Brighton Road south Croydon Near The Junction With Hailing Pa,2019-02-06,15:55:00,Croydon, PedalCycle,2019
353606,51.357947,-0.205151,On Grove Road Near The Junction With York Road,2019-05-05,07:11:00,Sutton, PedalCycle,2019
370036,51.357974,-0.215162,Location Uncertain On High Street 10 metres west of The Junction,2019-12-19,17:20:00,Sutton, PedalCycle,2019
362393,51.358034,-0.116168,On Waddon Way Near The Junction With Purley Way,2019-09-05,18:15:00,Croydon, PedalCycle,2019
311697,51.358256,-0.176226,Downside Road 21 metres north of junction with Upland Road,2017-11-03,08:00:00,Sutton, PedalCycle,2017
719294,51.358261,-0.191078,On Brighton Road 10 metres south of The Junction With Wellesley R,2019-02-09,23:41:00,Sutton, PedalCycle,2019
311465,51.35849,-0.191298,Brighton Road junction with The Quadrant,2017-04-01,19:14:00,Sutton, PedalCycle,2017
354585,51.35855,-0.212812,On Belmont Road Near The Junction With High Street,2019-05-19,12:30:00,Sutton, PedalCycle,2019
729702,51.358647,-0.030421,On Kent Gateway Near The Junction With Addington Village Road,2019-07-14,10:55:00,Croydon, PedalCycle,2019
363367,51.358662,-0.138018,On Link Lane Near The Junction With Sandy Lane south,2019-09-21,11:30:00,Sutton, PedalCycle,2019
338624,51.358884,-0.295561,Gilders Road junction with Stokesby Road,2018-05-16,07:30:00,Kingston upon Thames, PedalCycle,2018
337770,51.359392,-0.139841,Stafford Road junction with Demense Road,2018-05-02,17:14:00,Sutton, PedalCycle,2018
356420,51.359394,0.022297,On Fox Lane Near The Junction With Jackass Lane,2019-06-15,10:00:00,Bromley, PedalCycle,2019
718428,51.359464,-0.139824,On Stafford Road Near The Junction With Demense Road,2019-01-28,06:40:00,Sutton, PedalCycle,2019
368225,51.359524,-0.138529,On Stafford Road Between The junction with Sandy Lane south & Demesne Road,2019-11-04,17:10:00,Sutton, PedalCycle,2019
364159,51.359571,-0.097777,On Brighton Road Near The Junction With Junction Road,2019-10-02,16:31:00,Croydon, PedalCycle,2019
311705,51.359708,-0.206189,Cheam Road junction with Gander Green Lane,2017-11-14,11:32:00,Sutton, PedalCycle,2017
311778,51.359885,-0.206038,Cheam Road junction with York Road,2017-12-30,18:13:00,Sutton, PedalCycle,2017
311513,51.359916,-0.155907,Park Lane junction with Grosvenor Avenue,2017-06-09,18:45:00,Sutton, PedalCycle,2017
311476,51.360116,-0.191809,High Street 21 metres south of junction with Grove Road,2017-04-25,18:30:00,Sutton, PedalCycle,2017
337854,51.360215,-0.19238,Grove Road junction with Orme Road,2018-08-10,11:50:00,Sutton, PedalCycle,2018
337946,51.360335,-0.217799,Mickleham Gardens junction with Malden Road,2018-10-25,07:18:00,Sutton, PedalCycle,2018
311291,51.360475,-0.117533,Purley Way junction with Foss Way,2017-12-12,06:45:00,Croydon, PedalCycle,2017
336030,51.360927,0.089188,Sevenoaks Road 46 metres north of junction with Oakleight Gardens,2018-02-02,08:05:00,Bromley, PedalCycle,2018
351073,51.360999,-0.144157,On Ross Road 25 metres east of The Junction With Cylde Road,2019-03-26,17:40:00,Sutton, PedalCycle,2019
311382,51.360999,-0.150406,Manor Road junction with Station Approach,2017-01-31,07:40:00,Sutton, PedalCycle,2017
729835,51.361221,-0.167418,On Carshalton Park Road Near The Junction With Wales Avenue,2019-06-16,10:30:00,Sutton, PedalCycle,2019
336291,51.361387,0.00101,Layhams Road junction with Chestnut Avenue,2018-06-20,12:21:00,Bromley, PedalCycle,2018
719276,51.361394,-0.168733,On Wales Avenue Near The Junction With Park Hill,2019-02-09,13:30:00,Sutton, PedalCycle,2019
310034,51.36148,0.00087,Layhams Road junction with Chestnut Avenue,2017-07-18,19:02:00,Bromley, PedalCycle,2017
349609,51.36153,-0.150442,On Manor Road Near The Junction With Grosvenor Road,2019-03-04,17:30:00,Sutton, PedalCycle,2019
351018,51.361563,-0.190588,On Carshalton Road Near The Junction With Throwley Road,2019-01-18,15:52:00,Sutton, PedalCycle,2019
337737,51.362063,-0.138153,Tharp Road 21 metres south of junction with N/A,2018-04-20,17:30:00,Sutton, PedalCycle,2018
311566,51.362231,-0.14303,Bute Gardens junction with Bute Gardens,2017-07-11,07:48:00,Sutton, PedalCycle,2017
363168,51.36234,-0.136332,On Tharp Road Near The Junction With Beddington Grove,2019-09-17,21:10:00,Sutton, PedalCycle,2019
368775,51.362532,0.058979,On Hilda Vale Road Near The Junction With Farnborough Common,2019-12-03,08:56:00,Bromley, PedalCycle,2019
311371,51.362535,-0.150918,Manor Road junction with Springfield Road,2017-01-24,09:08:00,Sutton, PedalCycle,2017
350379,51.362602,-0.168325,On Park Hill Near The Junction With Ruskin Road,2019-03-15,20:02:00,Sutton, PedalCycle,2019
309936,51.362738,0.02707,Baston Road junction with west Common Road,2017-05-31,18:50:00,Bromley, PedalCycle,2017
311671,51.362787,-0.184234,Carshalton Road junction with Oxford Road,2017-10-16,19:55:00,Sutton, PedalCycle,2017
310479,51.362828,-0.06874,Oaks Road junction with Coombe Lane,2017-01-24,18:48:00,Croydon, PedalCycle,2017
367101,51.36288,-0.183282,On Carshalton Road Near The Junction With Na,2019-11-12,14:30:00,Sutton, PedalCycle,2019
367165,51.363117,-0.173088,On Carshalton Road Near The Junction With Oxford Road,2019-11-12,17:15:00,Sutton, PedalCycle,2019
356995,51.363194,0.026716,On Baston Road Br2 Near The Junction With Baston Road,2019-06-22,12:10:00,Bromley, PedalCycle,2019
337965,51.363257,-0.151033,Manor Road junction with Manor Road,2018-11-08,08:30:00,Sutton, PedalCycle,2018
338627,51.363384,-0.302001,Bridge Road junction with Station Road,2018-05-17,17:20:00,Kingston upon Thames, PedalCycle,2018
310636,51.363425,-0.099743,Warham Road 25 metres west of junction with Brighton Road The Nearest Classified Road,2017-04-02,11:34:00,Croydon, PedalCycle,2017
337629,51.363614,-0.156621,Park Lane junction with Ruskin Road,2018-01-23,07:30:00,Sutton, PedalCycle,2018
351939,51.363644,-0.296375,On Church Lane Near The Junction With Bridge Road,2019-04-08,06:00:00,Kingston upon Thames, PedalCycle,2019
310925,51.36374,-0.119267,Stafford Road 10 metres north of junction with Stafford Gardens,2017-07-20,16:45:00,Croydon, PedalCycle,2017
370170,51.36375,-0.098695,On Warham Road Near Junction With Brighton Road,2019-12-20,15:00:00,Croydon, PedalCycle,2019
337782,51.363765,-0.13205,Plough Lane 100 metres north of junction with The Chase,2018-05-20,13:00:00,Sutton, PedalCycle,2018
352010,51.363768,0.092248,On Sevenoaks Road Near The Junction With Cardinham Road,2019-04-09,09:01:00,Bromley, PedalCycle,2019
311723,51.363772,-0.189797,Manor Park Road junction with Greyhound Road,2017-11-24,17:15:00,Sutton, PedalCycle,2017
729971,51.363775,-0.298597,On Bridge Road Near The Junction With Osbourne Way,2019-07-17,20:45:00,Kingston upon Thames, PedalCycle,2019
724603,51.364158,-0.096725,On Heathfield Road 21 metres south of The Junction With Ledbury R,2019-05-03,07:54:00,Croydon, PedalCycle,2019
360559,51.364193,-0.185601,On Lind Road 25 metres north of The Junction With Greyhound Road,2019-08-12,08:00:00,Sutton, PedalCycle,2019
357285,51.364317,-0.296867,On Moor Lane 100 metres east of The Junction With Mount Road,2019-06-26,17:40:00,Kingston upon Thames, PedalCycle,2019
337236,51.364623,-0.118225,Denning Avenue junction with Purley Way,2018-08-05,08:20:00,Croydon, PedalCycle,2018
349857,51.364875,-0.118258,On Denning Avenue Near The Junction With Purley Way,2019-03-06,19:35:00,Croydon, PedalCycle,2019
311524,51.365151,-0.157134,Park Lane 21 metres north of junction with Lavender Road,2017-06-17,08:00:00,Sutton, PedalCycle,2017
311721,51.365336,-0.157414,Park Lane 50 metres north of junction with Lavender Road,2017-11-22,19:39:00,Sutton, PedalCycle,2017
729700,51.365406,-0.118293,On Purley Way Near The Junction With Fiveways,2019-07-04,19:45:00,Croydon, PedalCycle,2019
367720,51.365569,-0.185589,On Lower Road Near The Junction With Palmerston Road Sutton,2019-11-19,19:45:00,Sutton, PedalCycle,2019
311651,51.365611,-0.221817,Chatsworth Road 50 metres north east of junction with Malden Road,2017-10-02,17:03:00,Sutton, PedalCycle,2017
349936,51.365648,-0.186664,On The Broadway Near The Junction With The Broadway,2019-03-08,19:25:00,Sutton, PedalCycle,2019
337790,51.36571,-0.23368,London Road junction with Sparrow Farm Road,2018-06-13,15:35:00,Sutton, PedalCycle,2018
311518,51.366284,-0.177775,Westmead Road junction with Kingsley Avenue,2017-06-14,18:28:00,Sutton, PedalCycle,2017
354309,51.366504,-0.188512,On Benhill Avenue Near The Junction With Benhill Wood Road,2019-05-15,17:20:00,Sutton, PedalCycle,2019
337763,51.366564,-0.195865,St Nicholas Way junction with Haddon Road,2018-05-13,20:26:00,Sutton, PedalCycle,2018
362729,51.366589,-0.084758,On Brownlow Road Near The Junction With Caroline Close,2019-09-13,16:15:00,Croydon, PedalCycle,2019
337729,51.366894,-0.153616,Manor Road junction with Wrights Row,2018-04-13,07:11:00,Sutton, PedalCycle,2018
337123,51.367065,-0.053046,Upper Shirley Road junction with Oaks Road,2018-06-24,12:39:00,Croydon, PedalCycle,2018
312380,51.367232,-0.306887,Hook Road junction with Hook Parade,2017-04-12,07:42:00,Kingston upon Thames, PedalCycle,2017
310003,51.367366,0.035032,Croydon Road 30 metres east of junction with Quiet Nook,2017-06-25,10:30:00,Bromley, PedalCycle,2017
336194,51.367466,0.044805,Croydon Road junction with Forest Drive,2018-05-11,07:35:00,Bromley, PedalCycle,2018
336502,51.367584,0.025042,Croydon Road junction with Baston Road,2018-10-08,06:40:00,Bromley, PedalCycle,2018
338662,51.367587,-0.306587,Hook Road junction with Elm Road,2018-06-19,18:45:00,Kingston upon Thames, PedalCycle,2018
311133,51.367597,-0.121996,The Ridgeway junction with Croydon Road,2017-10-14,10:35:00,Croydon, PedalCycle,2017
348840,51.367621,-0.11905,On Purley Way Near The Junction With Croydon Road,2019-02-20,17:40:00,Croydon, PedalCycle,2019
311140,51.367642,-0.099138,South End junction with High Street,2017-10-18,16:45:00,Croydon, PedalCycle,2017
356147,51.367723,-0.099134,On High Street Near The Junction With Lower Coombe Road,2019-06-11,13:25:00,Croydon, PedalCycle,2019
369236,51.367732,-0.096404,On Park Lane 40 metres north of The Junction With Coombe Road,2019-12-09,07:48:00,Croydon, PedalCycle,2019
311429,51.36798,-0.217933,Church Hill Road junction with Abbotts Road,2017-03-06,07:00:00,Sutton, PedalCycle,2017
730351,51.368065,-0.115297,On Stafford Road Near The Junction With Duppas Hill Road,2019-07-23,08:13:00,Croydon, PedalCycle,2019
362329,51.368138,-0.115351,On Duppas Hill Road Near The Junction With Epsom Road,2019-09-08,13:45:00,Croydon, PedalCycle,2019
312503,51.36816,-0.302687,Gosbury Hill junction with Orchard Gardens,2017-08-24,08:20:00,Kingston upon Thames, PedalCycle,2017
311614,51.368181,-0.231142,London Road junction with Oaks Avenue,2017-08-25,17:30:00,Sutton, PedalCycle,2017
309978,51.368249,-0.005873,Addington Road junction with Corkscrew Hill,2017-06-21,19:37:00,Bromley, PedalCycle,2017
336469,51.368254,-0.00616,Addington Road junction with Corkscrew Hill,2018-09-22,10:30:00,Bromley, PedalCycle,2018
364728,51.368262,-0.006059,On Addington Road Near The Junction With Corkscrew Hill,2019-10-09,13:20:00,Bromley, PedalCycle,2019
730817,51.36828,-0.006102,On Addington Road Near The Junction With Corkscrew Hill,2019-07-29,20:05:00,Bromley, PedalCycle,2019
730874,51.368336,0.084698,On Tubbenden Lane Near The Junction With Ruskin Drive,2019-07-30,21:03:00,Bromley, PedalCycle,2019
351839,51.368382,-0.005724,On Addington Road Near The Junction With Layhams Road,2019-04-06,07:30:00,Bromley, PedalCycle,2019
338777,51.368401,-0.313165,Clayton Road 39 metres north west of junction with Devon Way,2018-10-31,13:25:00,Kingston upon Thames, PedalCycle,2018
361843,51.368423,-0.006038,On Addington Road Near The Junction With Corckscrew Hill,2019-09-01,17:40:00,Bromley, PedalCycle,2019
312335,51.368486,-0.306554,Hook Road junction with Cecil Close,2017-02-20,08:10:00,Kingston upon Thames, PedalCycle,2017
336954,51.3687,-0.103404,Lower Coombe Street [Roundabout] junction with Old Town,2018-04-14,08:50:00,Croydon, PedalCycle,2018
338608,51.368988,-0.291594,Mount Road junction with Cox Lane,2018-04-25,07:45:00,Kingston upon Thames, PedalCycle,2018
338540,51.369009,-0.286852,Davis Road junction with Davis Road Chessington,2018-02-02,06:30:00,Kingston upon Thames, PedalCycle,2018
337807,51.369129,-0.135711,Croydon Road 82 metres west of junction with Guy Road,2018-06-29,08:05:00,Sutton, PedalCycle,2018
338741,51.369207,-0.300493,Orchard Road junction with Gosbury Hill,2018-09-18,07:50:00,Kingston upon Thames, PedalCycle,2018
370794,51.369487,-0.09978,On High Street Near The Junction With Laud Street,2019-02-04,21:15:00,Croydon, PedalCycle,2019
311624,51.369533,-0.144171,Croydon Road 20 metres west of junction with Demesne Road,2017-09-12,14:40:00,Sutton, PedalCycle,2017
336918,51.369584,-0.113568,Epsom Road 56 metres north of junction with Penfold Close,2018-03-24,09:05:00,Croydon, PedalCycle,2018
719147,51.36964,-0.18313,On Benhill Road Near The Junction With Na,2019-01-23,09:15:00,Sutton, PedalCycle,2019
310515,51.369723,-0.099913,High Street junction with Laud Street,2017-02-06,08:50:00,Croydon, PedalCycle,2017
310278,51.369944,0.000234,Croydon Road junction with Glebe Way,2017-11-09,06:25:00,Bromley, PedalCycle,2017
362701,51.370268,-0.158293,On Vellum Drive Near The Junction With Butter Hill,2019-09-09,08:30:00,Sutton, PedalCycle,2019
311747,51.370375,-0.22761,Malden Road junction with Churchill Road,2017-12-07,06:05:00,Sutton, PedalCycle,2017
367714,51.370411,-0.227019,On Malden Road Near The Junction With Churchill Road,2019-11-19,18:00:00,Sutton, PedalCycle,2019
311560,51.370417,-0.194995,Sutton High Street junction with Bushey Road,2017-07-17,08:10:00,Sutton, PedalCycle,2017
311451,51.370726,-0.168547,Wrythe Lane junction with west Street,2017-04-08,12:10:00,Sutton, PedalCycle,2017
352560,51.370796,-0.100128,On High Street Near The Junction With Fell Road,2019-04-18,13:10:00,Croydon, PedalCycle,2019
310345,51.370996,0.089359,Tubbenden Lane 100 metres west of junction with Crofton Road,2017-12-02,10:50:00,Bromley, PedalCycle,2017
730203,51.371014,-0.001357,On Addington Road Near The Junction With Glebe Way,2019-07-21,02:23:00,Bromley, PedalCycle,2019
364742,51.371028,-0.162573,On Denmark Road Near The Junction With Denmark Gardens,2019-10-10,14:00:00,Sutton, PedalCycle,2019
730740,51.371044,-0.117171,On Purley Way 5 metres south of The Junction With Waddon Road,2019-07-28,14:10:00,Croydon, PedalCycle,2019
348934,51.371105,-0.194695,On High Street 15 metres south of The Junction With Oakhill Road,2019-02-21,19:21:00,Sutton, PedalCycle,2019
337483,51.371223,-0.103731,Church Road junction with Belvedere Road,2018-11-15,19:10:00,Croydon, PedalCycle,2018
336094,51.371264,-0.001791,Glebe Way junction with Addington Road,2018-03-08,16:50:00,Bromley, PedalCycle,2018
310176,51.371402,0.096849,Sevenoaks Road 100 metres south of junction with Hillcrest Road,2017-09-23,12:40:00,Bromley, PedalCycle,2017
311406,51.371435,-0.208604,Gander Green Lane junction with Oldfields Road,2017-02-22,19:00:00,Sutton, PedalCycle,2017
350337,51.371544,-0.159937,On Denmark Road 21 metres north of The Junction With Unknown,2019-03-15,09:00:00,Sutton, PedalCycle,2019
310850,51.371711,-0.100549,Scarbrook Road junction with High Street,2017-06-21,19:50:00,Croydon, PedalCycle,2017
363740,51.371906,0.106355,On Spur Road Br6 Near The Junction With Spur Road,2019-09-26,18:00:00,Bromley, PedalCycle,2019
353925,51.37192,-0.226903,On London Road 21 metres north of The Junction With Unknown,2019-05-09,09:00:00,Sutton, PedalCycle,2019
729395,51.371953,-0.226672,On London Road Near The Junction With Senhouse Road,2019-07-09,17:43:00,Sutton, PedalCycle,2019
356595,51.372057,0.090384,On Station Road Near The Junction With Station Approach,2019-06-14,22:20:00,Bromley, PedalCycle,2019
364543,51.372235,-0.151275,On London Road 52 metres east of The Junction With Caraway Place,2019-10-08,07:40:00,Sutton, PedalCycle,2019
349367,51.372633,-0.30482,On Priory Road Near The Junction With Hook Road,2019-02-28,08:20:00,Kingston upon Thames, PedalCycle,2019
336224,51.372726,0.088145,Crofton Road junction with Orchard Green,2018-05-25,16:28:00,Bromley, PedalCycle,2018
311589,51.372973,-0.185843,Benhill Road junction with Grenell Road,2017-08-04,17:39:00,Sutton, PedalCycle,2017
312326,51.373137,-0.274055,Old Kingston Road junction with Kingston Road,2017-02-08,16:15:00,Kingston upon Thames, PedalCycle,2017
336168,51.373212,0.096213,Station Road 32 metres east of junction with Orchard Grove,2018-04-23,23:30:00,Bromley, PedalCycle,2018
729350,51.373283,0.095756,On Station Road Near The Junction With Orchard Grove,2019-07-09,11:45:00,Bromley, PedalCycle,2019
336485,51.373291,0.096791,Augustus Lane junction with Station Road,2018-09-29,14:38:00,Bromley, PedalCycle,2018
337732,51.373353,-0.187121,All Saints Road 21 metres north of junction with Unknown,2018-04-16,07:35:00,Sutton, PedalCycle,2018
360543,51.373491,-0.056092,On Upper Shirley Road Junction With Wickham Road,2019-08-11,17:30:00,Croydon, PedalCycle,2019
337980,51.373519,-0.16312,Nightingale Road junction with Strawberry Lane,2018-12-03,09:45:00,Sutton, PedalCycle,2018
337302,51.373606,-0.097626,Park Street 49 metres west of junction with Park Lane,2018-09-06,12:20:00,Croydon, PedalCycle,2018
337363,51.373617,-0.090557,Addiscombe Grove junction with Hazeldean Road,2018-09-27,18:00:00,Croydon, PedalCycle,2018
353256,51.373665,-0.225097,On London Road Near The Junction With Lloyd Road,2019-04-29,18:33:00,Sutton, PedalCycle,2019
336744,51.373754,-0.055665,Wickham Road 21 metres east of Shirley Road,2018-01-16,16:04:00,Croydon, PedalCycle,2018
337418,51.37376,-0.099315,George Street 65 metres east of junction with north End,2018-10-23,16:38:00,Croydon, PedalCycle,2018
336343,51.373784,0.0994,Gravel Pit Way junction with Felstead Way,2018-07-19,17:17:00,Bromley, PedalCycle,2018
350651,51.374092,0.002196,On Coney Hill Road Near The Junction With Bourne Way,2019-03-20,08:37:00,Bromley, PedalCycle,2019
337880,51.374135,-0.202895,Stayton Road junction with Dibdin Road,2018-08-30,09:01:00,Sutton, PedalCycle,2018
311729,51.374284,-0.224441,London Road junction with Glyn Road,2017-11-02,08:00:00,Sutton, PedalCycle,2017
311772,51.374372,-0.224294,London Road junction with Glynn Road,2017-12-25,19:10:00,Sutton, PedalCycle,2017
367519,51.374375,-0.050825,On Wickham Road Near The Junction With Barmouth Road,2019-11-15,19:45:00,Croydon, PedalCycle,2019
360679,51.37446,-0.22419,On London Road Near The Junction With Glyn Road,2019-08-13,18:25:00,Sutton, PedalCycle,2019
364738,51.374461,-0.224233,On London Road Near The Junction With Glyn Road,2019-10-08,07:50:00,Sutton, PedalCycle,2019
310812,51.374561,-0.049567,Wickham Road junction with west Way Gardens,2017-05-25,08:45:00,Croydon, PedalCycle,2017
337397,51.37465,-0.049563,Verdayne Avenue junction with Wickham Road,2018-10-11,17:00:00,Croydon, PedalCycle,2018
717983,51.374685,0.044883,On Hastings Road Near The Junction With Jackson Road,2019-01-21,08:00:00,Bromley, PedalCycle,2019
363771,51.374771,-0.184636,On Edinburgh Road Near The Junction With Grennell Road,2019-09-27,08:48:00,Sutton, PedalCycle,2019
349351,51.374911,-0.204229,On Oldfields Road Junction With Tesco Car Park/Stayton Road,2019-02-27,21:16:00,Sutton, PedalCycle,2019
312548,51.375005,-0.303439,Kingston Bypass junction with Hook Road,2017-09-28,07:40:00,Kingston upon Thames, PedalCycle,2017
311142,51.375018,-0.082739,Addiscombe Road 49 metres west of junction with Canning Road,2017-10-19,10:00:00,Croydon, PedalCycle,2017
365449,51.375036,-0.010435,On Glebe Way Near The Junction With Rose Walk,2019-10-19,22:00:00,Bromley, PedalCycle,2019
353895,51.375139,-0.193315,Location Uncertain On Angel Hill Near The Junction With Na,2019-04-29,06:40:00,Sutton, PedalCycle,2019
310763,51.375168,-0.078135,Havelock Road junction with Addiscombe Road,2017-05-18,08:15:00,Croydon, PedalCycle,2017
310981,51.375239,-0.079713,Elgin Road junction with Addiscombe Road,2017-08-14,16:46:00,Croydon, PedalCycle,2017
350081,51.375321,-0.304132,On Hook Road Near The Junction With Kingston Bypass,2019-03-11,09:00:00,Kingston upon Thames, PedalCycle,2019
366063,51.37536,-0.303728,On Hook Road Near The Junction With Kingston Bypass,2019-10-22,08:38:00,Kingston upon Thames, PedalCycle,2019
349319,51.375419,-0.043883,On Wickham Road 72 metres west of The Junction With Inwood Close,2019-02-27,09:50:00,Croydon, PedalCycle,2019
729409,51.376168,-0.059715,On Shirley Road Near The Junction With Addiscombe Road,2019-07-10,07:05:00,Croydon, PedalCycle,2019
336486,51.376228,0.11848,Plantation Drive 38 metres north of junction with Quilter Road,2018-09-29,15:25:00,Bromley, PedalCycle,2018
337612,51.376231,-0.222354,London Road junction with Langley Avenue,2018-01-05,03:33:00,Sutton, PedalCycle,2018
355672,51.37633,-0.222351,On London Road Near The Junction With Langley Avenue,2019-06-05,08:30:00,Sutton, PedalCycle,2019
336042,51.376452,0.091044,Knoll Rise junction with Mayfield Avenue,2018-02-02,09:50:00,Bromley, PedalCycle,2018
365859,51.37652,0.01739,On west Common Road Near The Junction With Baston Road,2019-10-25,13:15:00,Bromley, PedalCycle,2019
336539,51.37658,-0.009247,Hawes Lane junction with Rose Walk,2018-10-25,14:47:00,Bromley, PedalCycle,2018
352440,51.37666,0.01764,On Baston Road Near The Junction With west Common Road,2019-04-13,13:58:00,Bromley, PedalCycle,2019
337666,51.376674,-0.221906,Staines Avenue junction with London Road,2018-02-19,05:30:00,Sutton, PedalCycle,2018
338610,51.376681,-0.282686,Hook Rise south 20 metres south of junction with A3 Slip Road,2018-05-01,11:30:00,Kingston upon Thames, PedalCycle,2018
337920,51.376733,-0.23771,Cheam Common Road junction with Cheam Common Road,2018-09-29,11:43:00,Sutton, PedalCycle,2018
361276,51.376759,-0.098516,On Wellesley Road 45 metres north of The Junction With Lansdowne R,2019-08-23,13:45:00,Croydon, PedalCycle,2019
337351,51.376764,-0.03611,Wickham Road 50 metres west of junction with Lake Road,2018-09-10,13:50:00,Croydon, PedalCycle,2018
337578,51.376799,-0.095453,Dingwall Road junction with Lansdowne Road,2018-12-20,18:02:00,Croydon, PedalCycle,2018
310083,51.376801,0.040623,Oakley Road 30 metres north of junction with Bromley Common The Nearest Classified Roa,2017-08-13,19:10:00,Bromley, PedalCycle,2017
310696,51.376903,-0.099041,Wellesley Road 100 metres south of junction with Poplar Walk,2017-04-25,08:26:00,Croydon, PedalCycle,2017
363950,51.376911,-0.095664,On Dingwall Road Near The Junction With Lansdowne Road,2019-09-26,06:45:00,Croydon, PedalCycle,2019
352189,51.377189,-0.126877,On Beddington Farm Road Near The Junction With Marlowe Way,2019-04-12,05:45:00,Croydon, PedalCycle,2019
337359,51.377391,-0.09586,Dingwall Road 64 metres north of junction with Lansdowne Road,2018-09-25,15:30:00,Croydon, PedalCycle,2018
367041,51.377421,-0.025434,On Wickham Road 5 metres east of The Junction With The Alders,2019-11-11,08:55:00,Bromley, PedalCycle,2019
368552,51.377425,-0.095758,On Dingwall Road 52 metres north of The Junction With Na,2019-11-29,23:30:00,Croydon, PedalCycle,2019
346133,51.37748,0.017504,On Pickhurst Lane Roundabout Br2 Near The Junction With Hayes,2019-01-07,16:14:00,Bromley, PedalCycle,2019
312586,51.377568,-0.302827,Hook Road junction with Verona Drive,2017-11-08,17:00:00,Kingston upon Thames, PedalCycle,2017
336043,51.377816,0.110218,Gillmans Road junction with Ramsden Road Orpington,2018-02-08,09:10:00,Bromley, PedalCycle,2018
311521,51.377818,-0.21439,Hamilton Avenue 22 metres west of junction with Watson Road,2017-05-29,16:00:00,Sutton, PedalCycle,2017
367761,51.37795,-0.279707,On Kingston Road Near The Junction With Toby Way,2019-11-19,10:35:00,Kingston upon Thames, PedalCycle,2019
337614,51.37813,-0.240961,Windsor Road junction with Central Road,2018-01-08,13:35:00,Sutton, PedalCycle,2018
337284,51.378136,-0.103014,London Road junction with Derby Road,2018-08-13,15:10:00,Croydon, PedalCycle,2018
311414,51.378167,-0.178596,Wrythe Lane junction with Welbeck Road,2017-02-02,18:55:00,Sutton, PedalCycle,2017
370380,51.378231,-0.158002,On Hackbridge Road 33 metres south of The Junction With The Green,2019-12-25,07:50:00,Sutton, PedalCycle,2019
336407,51.378343,0.008647,Bourne Vale junction with Pickhurst Lane,2018-08-24,07:49:00,Bromley, PedalCycle,2018
367866,51.378499,-0.103186,On London Road 39 metres south of The Junction With Oakfield Road,2019-11-21,12:35:00,Croydon, PedalCycle,2019
311683,51.378593,-0.241805,Central Road junction with Caldbeck Avenue,2017-10-27,17:50:00,Sutton, PedalCycle,2017
337229,51.378644,-0.09552,Sydenham Road junction with Bedford Place,2018-08-02,14:50:00,Croydon, PedalCycle,2018
357477,51.378647,-0.219789,On London Road Near The Junction With Gander Green Lane,2019-06-28,17:15:00,Sutton, PedalCycle,2019
337845,51.37869,-0.200848,Sutton Common Road junction with Oldfields Road,2018-07-31,08:30:00,Sutton, PedalCycle,2018
312587,51.378727,-0.281173,Kingston Bypass junction with Kingston Road,2017-11-08,08:05:00,Kingston upon Thames, PedalCycle,2017
337116,51.379032,-0.080703,Lower Addiscombe Road junction with Clyde Road,2018-06-21,07:45:00,Croydon, PedalCycle,2018
718286,51.379051,-0.077512,On Lower Addiscombe Road 86 metres north of The Junction With Hav,2019-01-25,07:00:00,Croydon, PedalCycle,2019
361525,51.379069,-0.173589,On Winchcombe Road 50 metres south of The Junction With Welhouse,2019-08-27,17:20:00,Sutton, PedalCycle,2019
336414,51.379197,0.042454,Hastings Road Bromley Common junction with Oakley Road,2018-08-25,00:20:00,Bromley, PedalCycle,2018
348303,51.379371,-0.191927,On Hove Gardens Near The Junction With Na,2019-02-12,17:41:00,Sutton, PedalCycle,2019
311242,51.379419,-0.121211,Purley Way junction with Ampere Way,2017-11-22,14:22:00,Croydon, PedalCycle,2017
337895,51.379517,-0.155695,London Road junction with Hackbridge Road,2018-09-12,05:55:00,Sutton, PedalCycle,2018
336749,51.379698,-0.083521,Lower Addiscombe Road junction with Warren Road,2018-01-17,20:00:00,Croydon, PedalCycle,2018
346064,51.379761,-0.171276,On Green Wrythe Lane Near The Junction With Buckhurst Avenue,2019-01-07,08:30:00,Sutton, PedalCycle,2019
311115,51.379812,-0.084407,Lower Addiscombe Road junction with Leslie Park Road,2017-10-02,08:45:00,Croydon, PedalCycle,2017
718466,51.379901,-0.218289,On London Road Near The Junction With Hamilton Avenue,2019-01-28,18:15:00,Sutton, PedalCycle,2019
349062,51.379928,-0.218274,On London Road Near The Junction With Hamilton Avenue,2019-02-23,14:56:00,Sutton, PedalCycle,2019
337376,51.380084,-0.073618,Lower Addiscombe Road junction with Everton Road,2018-10-03,08:15:00,Croydon, PedalCycle,2018
336779,51.380185,-0.085771,Combe Road 21 metres east of Cherry Orchard Road,2018-01-26,18:20:00,Croydon, PedalCycle,2018
351237,51.380301,-0.08683,On Lower Addiscombe Road Near The Junction With St James Road,2019-03-29,08:35:00,Croydon, PedalCycle,2019
310678,51.380303,-0.086973,Lower Addiscombe Road junction with Cherry Orchard Road,2017-04-03,20:00:00,Croydon, PedalCycle,2017
311418,51.380563,-0.217444,Stonecot Hill junction with Garth Road,2017-02-25,07:50:00,Sutton, PedalCycle,2017
310943,51.3807,-0.089256,Lower Addiscombe Road 25 metres north of junction with Freemasons Road,2017-07-27,19:40:00,Croydon, PedalCycle,2017
338675,51.380808,-0.2456,Central Road 38 metres east of junction with Park Terrace,2018-07-02,07:45:00,Kingston upon Thames, PedalCycle,2018
337222,51.380889,-0.117558,Thomson Crescent 100 metres west of junction with Kingsley Road,2018-07-31,17:20:00,Croydon, PedalCycle,2018
336943,51.381054,-0.10548,London Road junction with Panton Close,2018-04-07,23:14:00,Croydon, PedalCycle,2018
338740,51.381084,-0.246021,Malden Road junction with Worcester Park,2018-09-17,09:30:00,Kingston upon Thames, PedalCycle,2018
337398,51.381086,-0.090821,Lower Addiscombe Road junction with Gloucester Road,2018-10-11,18:53:00,Croydon, PedalCycle,2018
346215,51.381087,-0.013032,On Red Lodge Road Near The Junction With Pickhurst Lane,2019-01-10,07:30:00,Bromley, PedalCycle,2019
310409,51.381231,-0.013069,Red Lodge Road junction with The Avenue,2017-11-02,07:00:00,Bromley, PedalCycle,2017
352853,51.381399,-0.105724,On London Road 10 metres north of The Junction With Montague Road,2019-04-24,11:45:00,Croydon, PedalCycle,2019
729356,51.381461,-0.092314,On Saint James's Road Near The Junction With Lansdowne Road,2019-06-21,10:30:00,Croydon, PedalCycle,2019
338612,51.38164,-0.247149,The Manor Drive junction with A2043,2018-04-21,10:58:00,Kingston upon Thames, PedalCycle,2018
309594,51.381824,0.112415,Anglesea Road junction with Hayden Close,2017-01-06,13:20:00,Bromley, PedalCycle,2017
337925,51.381891,-0.216099,Stonecot Hill junction with Kingsbridge Road,2018-10-05,08:40:00,Sutton, PedalCycle,2018
312442,51.381934,-0.273005,Warren Drive south junction with Barnsbury Lane,2017-06-17,13:13:00,Kingston upon Thames, PedalCycle,2017
337881,51.382085,-0.176141,Winchcombe Road junction with Welbeck Road,2018-08-30,18:40:00,Sutton, PedalCycle,2018
310964,51.382108,-0.115065,Mitcham Road junction with Sutherland Road,2017-08-08,07:45:00,Croydon, PedalCycle,2017
309631,51.382191,0.040446,Bromley Common junction with Magpie Hall Lane,2017-01-25,12:10:00,Bromley, PedalCycle,2017
337014,51.382366,-0.097665,Newgate junction with Newgate,2018-05-10,10:00:00,Croydon, PedalCycle,2018
309808,51.382436,0.088299,Crofton Lane junction with St John's Road,2017-03-29,14:15:00,Bromley, PedalCycle,2017
311702,51.382492,-0.190783,Rose Hill 35 metres south of junction with Rosehill Avenue,2017-10-30,18:19:00,Sutton, PedalCycle,2017
338831,51.382611,-0.300859,Hook Road junction with Ditton Road,2018-12-19,11:40:00,Kingston upon Thames, PedalCycle,2018
337300,51.382678,-0.098587,Wellesley Road junction with St James Road,2018-09-05,15:50:00,Croydon, PedalCycle,2018
310438,51.382739,-0.098512,Wellesley Road 250 metres north of junction with George Street,2017-01-10,17:00:00,Croydon, PedalCycle,2017
312398,51.382791,-0.300852,Hook Road junction with Ditton Road,2017-05-04,17:09:00,Kingston upon Thames, PedalCycle,2017
368390,51.382805,0.003295,On Pickhurst Rise Near The Junction With Pickhurst Lane,2019-11-16,11:30:00,Bromley, PedalCycle,2019
337425,51.382891,-0.080254,Morland Road junction with Dartnell Road,2018-10-23,14:00:00,Croydon, PedalCycle,2018
337151,51.382933,-0.099366,St James's Road junction with Hogarth Crescent,2018-07-03,18:07:00,Croydon, PedalCycle,2018
337758,51.38313,-0.214758,Stonecot Hill 48 metres east of junction with Wellesley Court The Nearest Classified,2018-05-10,09:15:00,Sutton, PedalCycle,2018
309834,51.383219,0.09177,Chislehurst Road junction with Mayfield Avenue,2017-04-13,15:47:00,Bromley, PedalCycle,2017
337458,51.383234,-0.106827,St James's Road junction with Wellington Road,2018-11-08,09:15:00,Croydon, PedalCycle,2018
338839,51.383245,-0.288764,Ewell Road 35 metres east of junction with Red Lion Road,2018-12-06,07:55:00,Kingston upon Thames, PedalCycle,2018
338637,51.38332,-0.287755,King Charles Road junction with Tolworth Main Allotments Entrance,2018-05-28,17:10:00,Kingston upon Thames, PedalCycle,2018
311537,51.383403,-0.174149,Thornton Road 50 metres west of junction with Green Wrythe Lane,2017-06-27,17:10:00,Sutton, PedalCycle,2017
352948,51.383427,-0.098211,On Whitehorse Road Near The Junction With Hogarth Crescent,2019-04-25,15:14:00,Croydon, PedalCycle,2019
312465,51.383489,-0.305569,Langley Avenue 21 metres west of junction with N/A,2017-07-02,18:00:00,Kingston upon Thames, PedalCycle,2017
729481,51.383572,-0.098305,On Whitehorse Road Near The Junction With Hogarth Crescent,2019-07-11,06:00:00,Croydon, PedalCycle,2019
337974,51.384009,-0.190005,Wrythe Lane junction with Rosehill Roundabout,2018-11-28,20:10:00,Sutton, PedalCycle,2018
337753,51.3841,-0.201786,Forest Road junction with Romany Gardens,2018-05-08,16:20:00,Sutton, PedalCycle,2018
312307,51.384382,-0.292745,Ewell Road junction with Douglas Road,2017-01-23,08:30:00,Kingston upon Thames, PedalCycle,2017
337501,51.384439,-0.109077,London Road junction with Bensham Lane,2018-11-20,12:29:00,Croydon, PedalCycle,2018
337781,51.384571,-0.174102,Green Wrythe Lane 11 metres south of junction with Middleton Road,2018-05-17,20:00:00,Sutton, PedalCycle,2018
310804,51.385083,-0.121122,Lombard Roundabout junction with Purley Way,2017-06-04,07:00:00,Croydon, PedalCycle,2017
352528,51.385214,-0.109706,On London Road 35 metres north of The Junction With Pemdevon,2019-04-17,20:10:00,Croydon, PedalCycle,2019
312541,51.385231,-0.252761,Church Road junction with Malden Road,2017-09-27,17:51:00,Kingston upon Thames, PedalCycle,2017
365101,51.385238,-0.252617,On Malden Road Near The Junction With Church Road,2019-10-15,13:25:00,Kingston upon Thames, PedalCycle,2019
352715,51.385294,-0.120869,On Purley Way Near The Junction With Mitcham Road,2019-04-20,22:00:00,Croydon, PedalCycle,2019
349690,51.3853,-0.252571,On Malden Road 21 metres north of The Junction With Unknown,2019-02-27,19:02:00,Kingston upon Thames, PedalCycle,2019
336753,51.385307,-0.101567,Saint Saviours Road 10 metres north of junction with Windmill Road,2018-01-18,17:10:00,Croydon, PedalCycle,2018
726313,51.385348,-0.252728,Location Uncertain - On Malden Road Worcester Park Near The Junc,2019-05-28,08:45:00,Kingston upon Thames, PedalCycle,2019
337474,51.385348,-0.120824,Canterbury Road junction with Mitcham Road,2018-11-14,06:40:00,Croydon, PedalCycle,2018
336165,51.385485,0.01169,Kingsdown Way junction with Shoreham Way,2018-04-22,14:45:00,Bromley, PedalCycle,2018
311331,51.385532,-0.121104,Lombard Roundabout junction with Mitcham Road,2017-12-26,17:35:00,Croydon, PedalCycle,2017
337505,51.385626,-0.110177,London Road junction with Broad Green Avenue,2018-11-19,06:20:00,Croydon, PedalCycle,2018
718256,51.385714,-0.121226,On Mitcham Road Near The Junction With Thornton Foad,2019-01-24,20:35:00,Croydon, PedalCycle,2019
336704,51.385772,0.112884,Kent Road junction with High Street,2018-12-02,06:40:00,Bromley, PedalCycle,2018
310900,51.38593,-0.062737,Long Lane junction with Spring Lane,2017-06-29,11:15:00,Croydon, PedalCycle,2017
309689,51.385947,0.11318,Chelsfield Road junction with High Street,2017-02-01,07:05:00,Bromley, PedalCycle,2017
366318,51.385989,-0.110392,On London Road Near The Junction With Greenside Road,2019-11-01,18:40:00,Croydon, PedalCycle,2019
310801,51.386041,-0.096938,Whitehorse Road 10 metres north of junction with Devonshire Road,2017-06-04,13:20:00,Croydon, PedalCycle,2017
336242,51.386276,-0.024205,Monks Orchard Road junction with south Eden Park Road,2018-06-05,21:06:00,Bromley, PedalCycle,2018
312347,51.386329,-0.254012,Malden Road 30 metres south of junction with south Lane The Nearest Classified Road Wa,2017-03-09,08:26:00,Kingston upon Thames, PedalCycle,2017
337086,51.386354,-0.110722,London Road junction with Midhurst Avenue,2018-05-30,00:01:00,Croydon, PedalCycle,2018
309955,51.386368,-0.024345,Monks Orchard Road Beckenham junction with Links Way Beckenham,2017-05-25,11:33:00,Bromley, PedalCycle,2017
337166,51.386375,-0.12883,Canterbury Road junction with Sutherland Road,2018-07-11,15:00:00,Croydon, PedalCycle,2018
310159,51.386484,0.108318,Cray Avenue 150 metres south of Poverest Road,2017-09-18,13:41:00,Bromley, PedalCycle,2017
338699,51.386603,-0.25429,Malden Road junction with south Lane,2018-08-07,08:45:00,Kingston upon Thames, PedalCycle,2018
312558,51.38666,-0.300996,Upper Brighton Road junction with Kingsdowne Road,2017-10-13,19:14:00,Kingston upon Thames, PedalCycle,2017
312278,51.386811,-0.300847,Langley Road junction with Upper Brighton Road,2017-01-03,08:39:00,Kingston upon Thames, PedalCycle,2017
312595,51.386882,-0.291502,King Charles Road junction with Alexandra Drive,2017-11-15,08:50:00,Kingston upon Thames, PedalCycle,2017
356695,51.387039,-0.11137,On London Road Near The Junction With Conterbury Road,2019-05-31,13:55:00,Croydon, PedalCycle,2019
337115,51.387126,-0.125207,Mitcham Road junction with Brading Road,2018-06-21,09:14:00,Croydon, PedalCycle,2018
361930,51.387153,-0.096202,On northcote Road Near The Junction With Whitehorse Road,2019-09-02,19:07:00,Croydon, PedalCycle,2019
350028,51.387502,-0.059897,On Long Lane Near The Junction With Stroud Green Road,2019-02-28,15:10:00,Croydon, PedalCycle,2019
311775,51.387529,-0.208407,Elm Road west 30 metres north west of junction with Litchfield Avenue,2017-12-29,09:00:00,Sutton, PedalCycle,2017
312275,51.387557,-0.198489,Glastonbury Road junction with Garendon Road,2017-12-30,12:51:00,Merton, PedalCycle,2017
719382,51.387608,-0.181441,On Middleton Road 81 metres north of The Junction With Robertsbri,2019-02-11,15:50:00,Sutton, PedalCycle,2019
336879,51.387691,-0.121159,Thornton Avenue junction with Thonton Avenue,2018-03-08,07:50:00,Croydon, PedalCycle,2018
310826,51.387801,-0.111238,London Road junction with Mayday Road,2017-06-14,08:45:00,Croydon, PedalCycle,2017
336908,51.387804,-0.111381,Mayday Road junction with London Road,2018-03-20,18:10:00,Croydon, PedalCycle,2018
337996,51.38781,-0.209114,Lower Morden Lane junction with Epsom Road,2018-12-17,18:30:00,Sutton, PedalCycle,2018
368181,51.387843,-0.208969,On Epsom Road Near The Junction With Lower Morden Lane,2019-11-26,08:42:00,Sutton, PedalCycle,2019
352380,51.387846,-0.111193,On London Road 24 metres south of The Junction With Stanley Road,2019-04-15,13:15:00,Croydon, PedalCycle,2019
730011,51.387848,-0.088081,On Selhurst New Road 2 metres south of The Junction With Selhurst,2019-07-18,10:05:00,Croydon, PedalCycle,2019
366506,51.387864,-0.160979,On Wates Way Near The Junction With Goat Road,2019-11-04,09:35:00,Sutton, PedalCycle,2019
310840,51.388035,-0.064948,Spring Lane junction with Woodside Road,2017-06-07,08:38:00,Croydon, PedalCycle,2017
337237,51.388061,-0.105047,St Saviours Road south west of Arm 15 metres south west of junction with St Saviours Road south east of Arm,2018-08-05,14:46:00,Croydon, PedalCycle,2018
312323,51.388138,-0.297492,Ewell Road junction with Brown's Road,2017-02-08,08:40:00,Kingston upon Thames, PedalCycle,2017
336297,51.388188,0.10854,Poverest Road junction with Bridge Road,2018-06-27,17:31:00,Bromley, PedalCycle,2018
337829,51.388189,-0.141117,Beddington Lane 100 metres north of junction with Coomber Way,2018-07-17,07:27:00,Sutton, PedalCycle,2018
312488,51.388226,-0.297345,Ewell Road junction with Browns Road,2017-08-03,16:25:00,Kingston upon Thames, PedalCycle,2017
309924,51.388264,0.017418,Hayes Lane junction with Mead Way,2017-05-30,16:00:00,Bromley, PedalCycle,2017
351287,51.388268,0.015621,On Mead Way Near The Junction With Bourne Vale,2019-03-29,17:56:00,Bromley, PedalCycle,2019
368560,51.388274,-0.252961,On Malden Road Near The Junction With Manor Park,2019-11-30,11:29:00,Kingston upon Thames, PedalCycle,2019
337472,51.388352,-0.067809,Woodside Green junction with Birchanger Road,2018-11-13,17:25:00,Croydon, PedalCycle,2018
312252,51.388487,-0.188822,Saint Helier Avenue junction with Netley Gardens,2017-12-06,07:40:00,Merton, PedalCycle,2017
309599,51.388573,0.035973,Crown Lane Spur junction with Bromley Common,2017-01-09,11:15:00,Bromley, PedalCycle,2017
312467,51.388593,-0.304087,Upper Brighton Road 22 metres west of junction with Langley Road,2017-06-30,14:00:00,Kingston upon Thames, PedalCycle,2017
363989,51.388597,-0.252906,On Malden Road Near The Junction With Portland Avenue,2019-09-30,17:40:00,Kingston upon Thames, PedalCycle,2019
355576,51.388604,-0.26551,On Gainsborough Road Near The Junction With Malden Way,2019-06-04,07:55:00,Kingston upon Thames, PedalCycle,2019
363633,51.388606,-0.252905,On Malden Road 36 metres north of The Junction With Holmsley Road,2019-09-25,08:45:00,Kingston upon Thames, PedalCycle,2019
350874,51.388742,-0.107131,On Bensham Lane Near The Junction With Lodge Road,2019-03-23,13:35:00,Croydon, PedalCycle,2019
351080,51.388813,-0.074502,On Adams Way 25 metres north of The Junction With Hardcastle Clos,2019-03-26,17:00:00,Croydon, PedalCycle,2019
311087,51.388896,-0.095526,Whitehorse Road junction with Talbot Road,2017-09-22,17:30:00,Croydon, PedalCycle,2017
310927,51.389073,-0.056999,Long Lane 50 metres south of junction with Bywood Avenue,2017-07-21,22:54:00,Croydon, PedalCycle,2017
353209,51.389112,-0.079031,On Davidson Road Near The Junction With Towpath Way,2019-04-29,15:30:00,Croydon, PedalCycle,2019
364151,51.389161,-0.316038,On Balaclava Road 30 metres east of The Junction With Chadwick Pl,2019-10-02,14:45:00,Kingston upon Thames, PedalCycle,2019
338759,51.389245,-0.305643,Lovelace Road junction with Brighton Road,2018-10-09,16:47:00,Kingston upon Thames, PedalCycle,2018
337216,51.389251,-0.111897,A235 junction with Unnamed Road,2018-06-30,02:30:00,Croydon, PedalCycle,2018
338524,51.389316,-0.261373,Millais Road junction with south Lane,2018-01-16,18:25:00,Kingston upon Thames, PedalCycle,2018
310091,51.389564,0.049298,Southborough Lane Br2 junction with southborough Lane,2017-08-10,18:25:00,Bromley, PedalCycle,2017
312220,51.38978,-0.179429,Bishopsford Road junction with Green Wrythe Lane,2017-11-20,07:54:00,Merton, PedalCycle,2017
338821,51.389781,-0.292976,King Charles Road junction with Britannia Road,2018-12-10,08:17:00,Kingston upon Thames, PedalCycle,2018
336034,51.389793,0.001674,Goodhart Way junction with Pickhurst Lane,2018-02-03,17:25:00,Bromley, PedalCycle,2018
337079,51.390018,-0.1317,Mitcham Road junction with Rochford Way,2018-06-06,08:13:00,Croydon, PedalCycle,2018
337336,51.390067,-0.112294,London Road 57 metres north of junction with Dunheved Road south,2018-09-04,19:20:00,Croydon, PedalCycle,2018
369734,51.390123,0.116462,On Elizabeth Way Near The Junction With Crowhurst Way,2019-12-15,17:00:00,Bromley, PedalCycle,2019
369193,51.390133,0.09943,On Poverest Road Near The Junction With Cray Valley Road,2019-12-07,10:52:00,Bromley, PedalCycle,2019
354461,51.390208,-0.092166,On The Crescent Near The Junction With Na,2019-05-09,08:50:00,Croydon, PedalCycle,2019
335998,51.390213,0.003417,Woodlea Drive Br2 junction with westmoreland Road,2018-01-17,08:20:00,Bromley, PedalCycle,2018
337174,51.39038,-0.120618,Thornton Road junction with Harcourt Road,2018-07-13,11:28:00,Croydon, PedalCycle,2018
336302,51.390513,0.053595,Southborough Lane junction with Blackbrook Lane,2018-06-29,06:45:00,Bromley, PedalCycle,2018
338542,51.390542,-0.253133,Malden Road junction with Amberwood Rise,2018-02-05,17:30:00,Kingston upon Thames, PedalCycle,2018
338648,51.390582,-0.307894,Upper Brighton Road 10 metres south east of junction with Glenbuck Road,2018-06-08,08:45:00,Kingston upon Thames, PedalCycle,2018
363000,51.390614,-0.05449,On Long Lane At Junction With Slip Road Also Called Long Lane 114,2019-09-12,19:10:00,Croydon, PedalCycle,2019
312432,51.390637,-0.277708,Greenfield Avenue junction with Grand Avenue,2017-06-09,16:20:00,Kingston upon Thames, PedalCycle,2017
311209,51.390647,-0.054345,A222 junction with Long Lane,2017-11-10,18:10:00,Croydon, PedalCycle,2017
363624,51.390688,-0.262916,On south Lane 50 metres west of The Junction With Amberwood Rise,2019-09-25,08:00:00,Kingston upon Thames, PedalCycle,2019
368179,51.390952,-0.165785,On Wates Way Near The Junction With Willow Lane,2019-11-26,05:55:00,Merton, PedalCycle,2019
311840,51.391001,-0.223794,Lower Morden Lane junction with Carlingford Road,2017-02-07,17:29:00,Merton, PedalCycle,2017
336403,51.39102,0.090544,Chislehurst Road junction with Petts Wood Road,2018-08-21,18:25:00,Bromley, PedalCycle,2018
309850,51.391029,0.090559,Poverest Road junction with Chislehurst Road,2017-04-22,10:30:00,Bromley, PedalCycle,2017
728977,51.391034,0.090775,On Chislehurst Road Br5 Near The Junction With Poverest Road,2019-07-03,19:30:00,Bromley, PedalCycle,2019
349016,51.391139,-0.309109,On Brighton Road Near The Junction With Victoria Road,2019-02-22,22:18:00,Kingston upon Thames, PedalCycle,2019
368486,51.391253,0.110679,On Cray Avenue Near The Junction With Stanley Way,2019-11-29,13:10:00,Bromley, PedalCycle,2019
726360,51.391355,-0.252729,On Malden Road Near The Junction With Malden Road,2019-05-15,13:30:00,Kingston upon Thames, PedalCycle,2019
310570,51.391477,-0.050141,The Glade 50 metres north west of junction with Mardell Road,2017-02-25,08:50:00,Croydon, PedalCycle,2017
338774,51.391478,-0.298374,Ewell Road junction with Shalston Villas,2018-10-26,16:26:00,Kingston upon Thames, PedalCycle,2018
729199,51.391538,-0.031237,On Upper Elmers End Road 193 metres east of The Junction With Lod,2019-07-06,08:45:00,Bromley, PedalCycle,2019
312229,51.391546,-0.177346,Bishopsford Road 105 metres south west of junction with Seddon Road,2017-10-23,14:15:00,Merton, PedalCycle,2017
718444,51.391617,-0.222908,On Grand Drive London Sw20 85 metres north of The Junction With,2019-01-28,07:04:00,Merton, PedalCycle,2019
729161,51.39164,-0.031391,On Upper Elmers End Road 192 metres east of The Junction With Lod,2019-07-06,08:50:00,Bromley, PedalCycle,2019
338544,51.391687,-0.294198,Berrylands junction with Junction With King Charles Road,2018-02-07,18:29:00,Kingston upon Thames, PedalCycle,2018
356433,51.391731,-0.20153,On Green Lane Near The Junction With Central Road,2019-06-10,06:40:00,Merton, PedalCycle,2019
312472,51.39174,-0.310295,Brighton Road 40 metres south east of junction with Balaclava Road,2017-07-12,18:30:00,Kingston upon Thames, PedalCycle,2017
337342,51.391741,-0.066085,Portland Road junction with Dundee Road,2018-09-19,08:40:00,Croydon, PedalCycle,2018
369837,51.391911,-0.182334,On Lilleshall Road Near The Junction With Leominster Road,2019-12-17,06:40:00,Merton, PedalCycle,2019
312394,51.391928,-0.310863,Brighton Road junction with Maple Road,2017-04-28,11:53:00,Kingston upon Thames, PedalCycle,2017
361029,51.391996,0.000117,On westmorland Road Near The Junction With Hayes Lane,2019-08-19,19:08:00,Bromley, PedalCycle,2019
312458,51.392019,-0.298498,Ewell Road junction with south Bank,2017-07-01,12:55:00,Kingston upon Thames, PedalCycle,2017
348360,51.392077,0.01793,On Hayes Lane Near The Junction With Hayes Road,2019-02-13,11:34:00,Bromley, PedalCycle,2019
351419,51.392313,-0.265183,On Oxford Crescent Near The Junction With south Lane,2019-03-30,20:55:00,Kingston upon Thames, PedalCycle,2019
338111,51.392334,-0.18752,Leominster Walk 20 metres east of junction with St Helier Avenue,2018-03-28,20:16:00,Merton, PedalCycle,2018
311821,51.392397,-0.13994,Croydon Road junction with Watneys Road,2017-01-10,07:00:00,Merton, PedalCycle,2017
352648,51.392427,0.106909,On Lynton Avenue Near The Junction With Lynmouth Rise,2019-04-20,09:30:00,Bromley, PedalCycle,2019
338768,51.392826,-0.304505,Station Approach junction with Victoria Road,2018-10-19,18:50:00,Kingston upon Thames, PedalCycle,2018
336100,51.392907,0.1112,Cray Avenue 30 metres north of junction with Cray Valley Road,2018-03-11,09:00:00,Bromley, PedalCycle,2018
310162,51.393139,-0.004647,Elwill Way 60 metres south of junction with Brabourne Rise,2017-09-16,08:15:00,Bromley, PedalCycle,2017
312446,51.393157,-0.265683,South Lane junction with Thetford Road,2017-06-20,17:17:00,Kingston upon Thames, PedalCycle,2017
312356,51.393226,-0.313546,Brighton Road 25 metres south of junction with Seething Wells Lane,2017-03-18,19:20:00,Kingston upon Thames, PedalCycle,2017
729255,51.393331,-0.113971,On Brigstock Road Near The Junction With London Road,2019-07-03,10:00:00,Croydon, PedalCycle,2019
349155,51.393344,-0.240852,On Claremont Avenue Near The Junction With west Barnes Lane,2019-02-25,08:00:00,Merton, PedalCycle,2019
336281,51.393368,0.029142,Bromley Common 30 metres east of junction with Hayes Lane,2018-06-22,16:40:00,Bromley, PedalCycle,2018
338363,51.393422,-0.241237,Motspur Park junction with west Barnes Lane,2018-10-01,19:40:00,Merton, PedalCycle,2018
356017,51.393432,-0.305359,On Saint James' Road Near The Junction With No Second Road,2019-06-06,19:30:00,Kingston upon Thames, PedalCycle,2019
370779,51.393522,-0.001281,On Hayes Lane Near The Junction With Tootswood Road,2019-12-21,18:20:00,Bromley, PedalCycle,2019
310911,51.393564,-0.073052,Birchanger Road junction with Elborough Road,2017-07-13,10:30:00,Croydon, PedalCycle,2017
310660,51.393608,-0.114448,London Road junction with Thornton Road,2017-04-09,12:20:00,Croydon, PedalCycle,2017
310168,51.39362,0.111521,Retail Car Park junction with Cray Avenue,2017-09-22,15:35:00,Bromley, PedalCycle,2017
370288,51.393703,-0.240809,On Claremont Avenue Near The Junction With west Barnes Lane,2019-12-23,11:00:00,Merton, PedalCycle,2019
335980,51.393842,0.0329,Raglan Road junction with southlands Road,2018-01-04,16:45:00,Bromley, PedalCycle,2018
310019,51.394106,0.028025,Bromley Common junction with Private Drive,2017-07-06,16:20:00,Bromley, PedalCycle,2017
312594,51.394135,-0.314231,Portsmouth Road junction with Brighton Road,2017-11-01,17:15:00,Kingston upon Thames, PedalCycle,2017
312612,51.394238,-0.253711,Malden Road junction with Malden Way,2017-11-06,17:00:00,Kingston upon Thames, PedalCycle,2017
312429,51.394354,-0.255432,Kingston Bypass 50 metres west of junction with Malden Road The Nearest Classified Ro,2017-05-22,08:30:00,Kingston upon Thames, PedalCycle,2017
338672,51.394412,-0.308471,Maple Road junction with St James' Road,2018-07-02,18:50:00,Kingston upon Thames, PedalCycle,2018
310853,51.394578,-0.085515,Selhurst Road 21 metres south of junction with Clifton Road,2017-06-21,17:20:00,Croydon, PedalCycle,2017
312377,51.394591,-0.253267,Malden Road junction with Malden Road,2017-04-08,07:50:00,Kingston upon Thames, PedalCycle,2017
368917,51.394691,-0.173714,On Bishopsford Road 50 metres south of The Junction With Wandle R,2019-12-04,17:40:00,Merton, PedalCycle,2019
338530,51.394752,-0.313346,Portsmouth Road junction with Seething Wells Halls of Residence,2018-01-26,20:25:00,Kingston upon Thames, PedalCycle,2018
338829,51.394782,-0.253978,Malden Road junction with A3 Malden Roundabout New Malden,2018-12-17,08:40:00,Kingston upon Thames, PedalCycle,2018
350666,51.394857,-0.148192,On Croydon Road 42 metres west of The Junction With Windmill Road,2019-03-19,17:49:00,Merton, PedalCycle,2019
310256,51.394875,-0.006297,Elwell Road junction with Top Park,2017-10-29,09:19:00,Bromley, PedalCycle,2017
310315,51.394878,-0.027715,Eden Park Avenue junction with Village Way,2017-11-20,14:30:00,Bromley, PedalCycle,2017
338651,51.395055,-0.254255,Malden Road junction with Bodley Road,2018-05-31,16:59:00,Kingston upon Thames, PedalCycle,2018
312408,51.395105,-0.312902,Portsmouth Road junction with The Mall,2017-05-11,15:18:00,Kingston upon Thames, PedalCycle,2017
336504,51.395273,-0.003261,Hayes Lane junction with Brabourne Rise,2018-10-09,06:50:00,Bromley, PedalCycle,2018
338716,51.39539,-0.298373,Lamberts Road 30 metres east of junction with Surbiton Hill Road,2018-08-21,07:15:00,Kingston upon Thames, PedalCycle,2018
309998,51.395434,0.008389,Westmoreland Road junction with Durham Road,2017-06-28,17:07:00,Bromley, PedalCycle,2017
336316,51.39547,0.025641,Masons Hill junction with Holmesdale Road,2018-07-04,07:40:00,Bromley, PedalCycle,2018
336543,51.395494,0.025786,Masons Hill junction with Hayes Lane,2018-10-27,08:05:00,Bromley, PedalCycle,2018
370835,51.395792,0.02521,On Masons Hill 40 metres north of The Junction With Homesdale Roa,2019-12-21,19:20:00,Bromley, PedalCycle,2019
312477,51.395913,-0.300366,Avenue Elmers junction with Selsdon Close,2017-07-15,15:15:00,Kingston upon Thames, PedalCycle,2017
355805,51.395971,-0.092616,On High Street Near The Junction With Zion Place,2019-06-06,17:10:00,Croydon, PedalCycle,2019
336511,51.396217,-0.043183,Upper Elmers End Road 10 metres south of junction with Balmoral Avenue,2018-10-10,08:54:00,Bromley, PedalCycle,2018
336286,51.396225,0.024611,Masons Hill 28 metres south of junction with Napier Road,2018-06-25,09:05:00,Bromley, PedalCycle,2018
312079,51.396283,-0.187077,St Helier Avenue junction with Bristol Road,2017-08-01,08:15:00,Merton, PedalCycle,2017
336315,51.396364,-0.048783,Croydon Road junction with Un Named Service Road,2018-07-04,06:45:00,Bromley, PedalCycle,2018
310713,51.396595,-0.115619,London Road junction with Lyndhurst Road,2017-04-30,15:35:00,Croydon, PedalCycle,2017
363401,51.396659,-0.305916,On Maple Road 35 metres north of The Junction With The Grove,2019-09-20,18:00:00,Kingston upon Thames, PedalCycle,2019
338718,51.39679,-0.311259,Portsmouth Road 40 metres south of junction with St Leonards Road,2018-08-23,19:55:00,Kingston upon Thames, PedalCycle,2018
336884,51.396864,-0.115608,London Road 21 metres west of junction with Lyndhurst Road,2018-03-11,12:35:00,Croydon, PedalCycle,2018
336980,51.396867,-0.115752,London Road 21 metres north of junction with Croydon,2018-04-23,07:45:00,Croydon, PedalCycle,2018
361985,51.396985,-0.311021,On Portsmouth Road Near The Junction With Cadogan Road,2019-08-22,17:15:00,Kingston upon Thames, PedalCycle,2019
364478,51.397012,-0.189966,On Central Road 27 metres north of The Junction With Bristol Road,2019-10-07,14:15:00,Merton, PedalCycle,2019
352811,51.397019,-0.195084,On Bordesley Road Morden Sm4 Near The Junction With N/A,2019-04-23,12:25:00,Merton, PedalCycle,2019
364798,51.397024,-0.266931,On Selwyn Road Near The Junction With south Lane,2019-10-10,16:40:00,Kingston upon Thames, PedalCycle,2019
338818,51.397047,-0.267261,South Lane junction with Groveland Way,2018-12-12,07:28:00,Kingston upon Thames, PedalCycle,2018
338251,51.3971,-0.158725,Carshalton Road 103 metres south of junction with Croydon Road The Nearest Classified,2018-07-05,20:15:00,Merton, PedalCycle,2018
337149,51.397139,-0.115884,London Road 30 metres south of junction with Goldwell Road,2018-07-03,18:18:00,Croydon, PedalCycle,2018
310806,51.397139,-0.115884,London Road junction with Goldwell Road,2017-05-16,17:30:00,Croydon, PedalCycle,2017
365243,51.397198,-0.189815,On Central Road 27 metres north of The Junction With Buckfast Roa,2019-10-17,09:08:00,Merton, PedalCycle,2019
338172,51.397198,-0.211479,Hillcross Avenue junction with Monkleigh Road,2018-05-18,08:10:00,Merton, PedalCycle,2018
336896,51.397228,-0.115881,London Road junction with Goldwell Road,2018-03-15,07:50:00,Croydon, PedalCycle,2018
337205,51.397228,-0.115881,Goldwell Road 5 metres south of junction with London Road,2018-07-27,13:00:00,Croydon, PedalCycle,2018
361917,51.397262,-0.220404,On Cannon Hill Lane Near The Junction With east Way London Sw20,2019-09-02,14:07:00,Merton, PedalCycle,2019
364107,51.397294,-0.116036,On Goldwell Road Near The Junction With London Road,2019-10-02,08:13:00,Croydon, PedalCycle,2019
348453,51.397299,-0.11582,On London Road Near The Junction With Godwell Road,2019-02-14,15:50:00,Croydon, PedalCycle,2019
365606,51.397308,-0.115791,On London Road Near The Junction With Goldwell Road,2019-10-01,16:56:00,Croydon, PedalCycle,2019
310829,51.397318,-0.115877,London Road junction with Goldwell Road,2017-06-13,07:30:00,Croydon, PedalCycle,2017
729377,51.397476,0.056034,On Blackbrook Lane 100 metres south of The Junction With Hawthorn,2019-07-09,06:55:00,Bromley, PedalCycle,2019
310301,51.397481,0.046,Southborough Road junction with Lime Close,2017-11-11,08:30:00,Bromley, PedalCycle,2017
312561,51.397496,-0.273282,Green Lane junction with Windsor Avenue,2017-10-04,19:19:00,Kingston upon Thames, PedalCycle,2017
346345,51.397501,-0.156783,On Croyden Road 100 metres west of The Junction With Carsharlton,2019-01-11,18:05:00,Merton, PedalCycle,2019
338416,51.397593,-0.172937,London Road Mitcham Surrey junction with Tramway Path,2018-10-30,20:15:00,Merton, PedalCycle,2018
351376,51.397614,0.021739,On Masons Hill Near The Junction With Wendover Road Bromley,2019-03-30,12:40:00,Bromley, PedalCycle,2019
348523,51.397644,-0.043539,On Upper Elmers End Road Near The Junction With The Close,2019-02-15,01:30:00,Bromley, PedalCycle,2019
310098,51.397684,0.013519,Queen Anne Avenue junction with westmoreland Road,2017-08-20,08:00:00,Bromley, PedalCycle,2017
338377,51.397714,-0.157694,Ravebsbury Arms Croydon Road 40 metres east of junction with Croydon Road The Nearest,2018-10-11,18:57:00,Merton, PedalCycle,2018
311203,51.397732,-0.102491,Brigstock Road junction with Brook Road,2017-11-07,12:25:00,Croydon, PedalCycle,2017
337528,51.397871,-0.077902,Selhurst Road 69 metres west of junction with Oliver Grove,2018-12-03,07:52:00,Croydon, PedalCycle,2018
338725,51.397944,-0.31021,Portsmouth Road 41 metres south of junction with Uxbridge Road,2018-09-07,17:10:00,Kingston upon Thames, PedalCycle,2018
312197,51.398006,-0.199659,London Road junction with Goodwood Close,2017-11-03,13:00:00,Merton, PedalCycle,2017
337516,51.398075,-0.10147,Brigstock Road junction with Melfort Road,2018-11-25,13:40:00,Croydon, PedalCycle,2018
312023,51.398084,-0.158398,Croydon Road junction with Carshalton Road,2017-06-04,10:20:00,Merton, PedalCycle,2017
718312,51.398219,-0.158939,On Carshalton Road Mitcham Cr4 Near The Junction With Commonsid,2019-01-25,19:55:00,Merton, PedalCycle,2019
312116,51.3983,-0.17219,Mitcham Park junction with London Road,2017-08-29,17:00:00,Merton, PedalCycle,2017
338374,51.398303,-0.172334,London Road junction with Taplow Court,2018-10-09,17:10:00,Merton, PedalCycle,2018
364548,51.398442,-0.296146,On Cranes Drive Near The Junction With Villiers Drive,2019-10-08,09:15:00,Kingston upon Thames, PedalCycle,2019
338198,51.398446,-0.158527,Cedars Avenue junction with Carshalton Road,2018-06-06,11:45:00,Merton, PedalCycle,2018
338052,51.398451,-0.158815,Commonside west junction with Cedars Avenue,2018-01-30,08:26:00,Merton, PedalCycle,2018
356384,51.398478,0.014963,On westmoreland Road Near The Junction With Hayes Road,2019-06-14,17:50:00,Bromley, PedalCycle,2019
338734,51.398599,-0.256708,Kingston Road 100 metres south of junction with Malden Road The Nearest Classified Roa,2018-09-13,18:20:00,Kingston upon Thames, PedalCycle,2018
369725,51.398634,-0.01634,On Wickham Way Near The Junction With Hayes Way,2019-12-15,08:27:00,Bromley, PedalCycle,2019
337087,51.398649,-0.076001,High Street junction with St Dunstan's Road,2018-06-11,17:55:00,Croydon, PedalCycle,2018
337267,51.398662,-0.098858,Brigstock Road junction with Parchmore Road,2018-08-17,22:30:00,Croydon, PedalCycle,2018
338802,51.398668,-0.255268,Burlington Road junction with Malden Road,2018-11-24,09:05:00,Kingston upon Thames, PedalCycle,2018
368451,51.398669,-0.255943,On Kingston Road Near The Junction With Malden Road,2019-11-29,07:10:00,Kingston upon Thames, PedalCycle,2019
336184,51.398735,-0.04322,Upper Elmers End Road junction with Croydon Road,2018-05-05,15:00:00,Bromley, PedalCycle,2018
312616,51.398749,-0.25469,Burlington Road 49 metres east of junction with Malden Road,2017-11-26,21:40:00,Kingston upon Thames, PedalCycle,2017
351591,51.398798,-0.255593,On High Street Near The Junction With Burlington Road,2019-04-02,21:10:00,Kingston upon Thames, PedalCycle,2019
354724,51.398841,-0.073463,On Portland Road Near The Junction With Albert Road Croydon,2019-05-21,13:20:00,Croydon, PedalCycle,2019
724953,51.398866,-0.098677,On Parchmore Road Near The Junction With Brigstock Road,2019-05-07,23:05:00,Croydon, PedalCycle,2019
312353,51.398884,-0.251666,Burlington Road 21 metres south of junction with Queens Road,2017-02-23,16:45:00,Kingston upon Thames, PedalCycle,2017
336339,51.398942,-0.018052,South Eden Park Road junction with Hayes Way,2018-07-18,08:35:00,Bromley, PedalCycle,2018
336123,51.398944,-0.018196,South Eden Park Road junction with Hayes Lane,2018-03-24,20:10:00,Bromley, PedalCycle,2018
338439,51.398966,-0.145855,Commonside east junction with Manor Road,2018-11-11,15:42:00,Merton, PedalCycle,2018
309746,51.398976,-0.041484,Croydon Road junction with Eden Park Avenue,2017-02-18,12:00:00,Bromley, PedalCycle,2017
337077,51.399018,-0.093093,The Drive junction with Grange Road,2018-06-05,19:15:00,Croydon, PedalCycle,2018
335986,51.399032,-0.018048,Wickham Way junction with Hayes Lane,2018-01-09,20:00:00,Bromley, PedalCycle,2018
338520,51.399038,-0.249935,Burlington Road 65 metres north of junction with Queens Road,2018-01-13,17:45:00,Kingston upon Thames, PedalCycle,2018
309596,51.399061,-0.041193,Croydon Road junction with Eden Park Avene,2017-01-09,07:25:00,Bromley, PedalCycle,2017
310325,51.399074,-0.017903,Hayes Lane junction with Wickham Road,2017-11-24,09:00:00,Bromley, PedalCycle,2017
311856,51.39908,-0.16454,Cricket Green junction with Cranmer Road,2017-02-20,14:15:00,Merton, PedalCycle,2017
355377,51.399101,-0.017887,On Hayes Lane Near The Junction With Hayes Way,2019-05-31,20:01:00,Bromley, PedalCycle,2019
367725,51.39911,-0.258428,Location Uncertain On Connaught Road 37 metres north of The Junc,2019-11-19,08:15:00,Kingston upon Thames, PedalCycle,2019
724520,51.399111,-0.202534,On Hillcross Avenue Near The Junction With Maycross Avenue,2019-05-02,08:30:00,Merton, PedalCycle,2019
336614,51.399119,-0.017901,Hayes Lane junction with Stone Park Avenue,2018-11-20,16:30:00,Bromley, PedalCycle,2018
363207,51.399125,-0.041233,On Croydon Road Near The Junction With Eden Park Avenue,2019-09-19,19:00:00,Bromley, PedalCycle,2019
346598,51.399134,-0.197559,On London Road Morden Sm4 50 metres north of The Junction With,2019-01-16,18:51:00,Merton, PedalCycle,2019
364533,51.399167,0.106672,On Curtismill Way Br5 Near The Junction With Saxville Road,2019-09-30,19:30:00,Bromley, PedalCycle,2019
336487,51.399216,-0.018328,Wickham Road junction with Stone Park Avenue (Chinese Roundabout),2018-09-30,06:50:00,Bromley, PedalCycle,2018
310242,51.399216,-0.018328,Hayes Lane junction with Wickham Road,2017-10-22,09:00:00,Bromley, PedalCycle,2017
337352,51.399321,-0.117376,London Road junction with Leander Road,2018-09-25,08:11:00,Croydon, PedalCycle,2018
312613,51.399364,-0.302682,Maple Road junction with Surbiton Hill Road,2017-11-23,11:42:00,Kingston upon Thames, PedalCycle,2017
338336,51.399423,-0.233675,West Barnes Lane junction with Adela Aveune,2018-09-11,20:36:00,Merton, PedalCycle,2018
729899,51.399436,-0.260371,On Sandal Road Near The Junction With Kingston Road,2019-07-16,09:05:00,Kingston upon Thames, PedalCycle,2019
310420,51.399439,-0.074818,High Street junction with Portland Road Se25,2017-01-05,12:37:00,Croydon, PedalCycle,2017
338341,51.399451,-0.170994,London Road 30 metres north of junction with Baron Grove,2018-09-18,20:20:00,Merton, PedalCycle,2018
312240,51.399455,-0.165531,Cricket Green junction with Bramcote Avenue,2017-11-29,16:30:00,Merton, PedalCycle,2017
338245,51.399642,-0.165955,Cricket Green junction with Mitcham Park,2018-07-11,07:15:00,Merton, PedalCycle,2018
312573,51.399658,-0.261412,Montem Road junction with Kingston Road,2017-10-12,17:40:00,Kingston upon Thames, PedalCycle,2017
361187,51.399808,-0.241912,On Burlington Road 0 metres east of The Junction With N/A,2019-08-22,08:20:00,Merton, PedalCycle,2019
309934,51.399845,-0.018301,Wickham Road 20 metres north of junction with Wickham Road,2017-06-02,09:00:00,Bromley, PedalCycle,2017
730448,51.399893,-0.107131,On Richmond Road Near The Junction With Na,2019-07-23,22:26:00,Croydon, PedalCycle,2019
312390,51.399901,-0.3087,Portsmouth Road junction with Palace Road,2017-04-24,14:05:00,Kingston upon Thames, PedalCycle,2017
363149,51.399979,-0.239533,On Burlington Road Near The Junction With Cavendish Avenue,2019-09-06,13:30:00,Merton, PedalCycle,2019
311877,51.400023,-0.133161,Chestnut Grove junction with south Lodge Avenue,2017-03-06,18:50:00,Merton, PedalCycle,2017
357413,51.400028,-0.085532,On Whitehorse Lane Near The Junction With Egerton Road,2019-06-27,18:15:00,Croydon, PedalCycle,2019
338224,51.400111,-0.133014,South Lodge Avenue junction with Recreation Way,2018-06-25,19:30:00,Merton, PedalCycle,2018
311192,51.400137,-0.117774,Headcorn Road junction with London Road,2017-10-31,18:15:00,Croydon, PedalCycle,2017
312169,51.400225,-0.229015,Grand Drive junction with Greenway,2017-10-21,11:40:00,Merton, PedalCycle,2017
354527,51.400311,-0.156468,On Cedars Avenue 800 metres south of The Junction With Commonside,2019-05-18,12:39:00,Merton, PedalCycle,2019
354828,51.400666,0.023657,On Murray Avenue Near The Junction With Palace View,2019-05-22,17:40:00,Bromley, PedalCycle,2019
338550,51.400769,-0.25145,Blagdon Road 21 metres north of junction with Halfway Down The Road Kingston,2018-02-02,17:15:00,Kingston upon Thames, PedalCycle,2018
337167,51.400862,-0.118175,London Road junction with Galpins Road,2018-07-11,18:25:00,Croydon, PedalCycle,2018
337179,51.400862,-0.118175,London Road junction with Warwick Road,2018-07-13,19:00:00,Croydon, PedalCycle,2018
337566,51.400862,-0.118175,London Road junction with Warwick Road,2018-12-17,08:10:00,Croydon, PedalCycle,2018
364833,51.400871,-0.303661,On Surbiton Road Near The Junction With Surbiton Crescent,2019-10-11,06:30:00,Kingston upon Thames, PedalCycle,2019
336362,51.400894,0.035945,Homesdale Road junction with Homesdale Road,2018-07-26,12:00:00,Bromley, PedalCycle,2018
337344,51.400934,-0.118144,London Road junction with Warwick Road,2018-09-21,08:00:00,Croydon, PedalCycle,2018
336915,51.401008,-0.104885,Melfort Road junction with Melfort Avenue,2018-03-23,11:38:00,Croydon, PedalCycle,2018
336298,51.401154,0.08757,Leesons Hill junction with Orpington Road,2018-06-27,19:25:00,Bromley, PedalCycle,2018
312248,51.401246,-0.19982,Links Avenue junction with Crown Lane,2017-11-29,09:40:00,Merton, PedalCycle,2017
312555,51.401374,-0.26796,South Lane west junction with Kingston Road,2017-10-12,08:15:00,Kingston upon Thames, PedalCycle,2017
311152,51.401406,-0.118441,London Road junction with Wharfedale Gardens Cr7 6Ld Uk,2017-10-24,15:50:00,Croydon, PedalCycle,2017
336756,51.401498,-0.118581,Wharfedale Gardens junction with London Road,2018-01-06,10:00:00,Croydon, PedalCycle,2018
352543,51.401505,-0.192693,On Abbotsbury Road Morden Surrey Near The Junction With Abercon,2019-04-18,09:34:00,Merton, PedalCycle,2019
312588,51.401546,-0.26134,Montem Road junction with Cambridge Road,2017-11-10,07:57:00,Kingston upon Thames, PedalCycle,2017
312435,51.401633,-0.255155,Kings Avenue 4 metres west of junction with High Street,2017-06-12,22:05:00,Kingston upon Thames, PedalCycle,2017
338564,51.40168,-0.294977,Villiers Road junction with Lingfield Avenue,2018-02-14,16:50:00,Kingston upon Thames, PedalCycle,2018
729626,51.401733,-0.09193,On Grange Road 100 metres north of The Junction With Ross Road,2019-07-10,14:50:00,Croydon, PedalCycle,2019
356909,51.401739,-0.118456,On London Road 10 metres south of The Junction With Strathyre Avenue,2019-06-21,15:40:00,Croydon, PedalCycle,2019
338081,51.401752,-0.197643,Crown Lane junction with Grasmere Avenue Morden,2018-02-27,16:20:00,Merton, PedalCycle,2018
730260,51.401769,-0.269167,On Kingston Road Near The Junction With Na,2019-07-21,15:00:00,Kingston upon Thames, PedalCycle,2019
312058,51.401801,-0.236315,West Barnes Lane junction with Linkway,2017-07-18,13:45:00,Merton, PedalCycle,2017
361052,51.401814,-0.269122,On Kingston Road 25 metres south of The Junction With Wellington,2019-08-19,12:20:00,Kingston upon Thames, PedalCycle,2019
338208,51.401883,-0.194475,London Road junction with Aberconway Road,2018-06-14,16:57:00,Merton, PedalCycle,2018
361086,51.401912,-0.118592,On London Road Near The Junction With Strathyre Avenue,2019-08-15,18:15:00,Croydon, PedalCycle,2019
338296,51.401971,-0.153929,Commonside east junction with Cedars Avenue,2018-08-07,17:48:00,Merton, PedalCycle,2018
312037,51.401992,-0.237027,"West Barnes Lane junction with Burlington Road,Sw20",2017-07-06,19:06:00,Merton, PedalCycle,2017
311943,51.402067,-0.154356,Commonside east junction with Cedars Avenue,2017-05-01,18:05:00,Merton, PedalCycle,2017
312110,51.402067,-0.154356,Commonside east junction with Cedars Avenue,2017-09-12,20:10:00,Merton, PedalCycle,2017
354323,51.402236,-0.194001,On London Road 35 metres north of The Junction With Aberconway Ro,2019-05-15,19:15:00,Merton, PedalCycle,2019
309938,51.402305,0.113646,Brooks Way junction with Broomwood Road,2017-05-19,17:05:00,Bromley, PedalCycle,2017
338348,51.402328,-0.19417,London Road Morden 30 metres north of junction with Aberconway Road,2018-09-25,08:08:00,Merton, PedalCycle,2018
310586,51.402394,-0.079582,South Norwood Hill junction with Elm Park Road,2017-03-10,08:34:00,Croydon, PedalCycle,2017
310102,51.402408,0.112932,Sevenoaks Way junction with Broomwood Road Orpington,2017-08-24,13:00:00,Bromley, PedalCycle,2017
338838,51.402418,-0.271659,Beresford Road junction with Kingston Road,2018-12-31,13:30:00,Kingston upon Thames, PedalCycle,2018
355468,51.402449,-0.103331,On Downhills Way N17 Near The Junction With Downhills Park Road north of,2019-06-02,12:40:00,Croydon, PedalCycle,2019
338642,51.402698,-0.272367,Springfield Place junction with Kingston Road,2018-06-01,18:35:00,Kingston upon Thames, PedalCycle,2018
354278,51.402766,-0.193391,On London Road 114 metres east of The Junction With Aberconway Ro,2019-05-01,19:45:00,Merton, PedalCycle,2019
311848,51.402821,-0.191132,Morden Hall Road junction with Service Road of 12 Morden Hall Road,2017-02-09,15:10:00,Merton, PedalCycle,2017
338738,51.402844,-0.264023,Melrose Gardens junction with Melrose Gardens,2018-09-17,08:41:00,Kingston upon Thames, PedalCycle,2018
365574,51.402896,-0.256588,On High Street Near The Junction With Dukes Avenue,2019-10-22,08:55:00,Kingston upon Thames, PedalCycle,2019
312000,51.402913,-0.191272,Morden Hall Road 21 metres south of junction with Morden Road The Nearest Classified R,2017-06-11,11:50:00,Merton, PedalCycle,2017
312404,51.402988,-0.304561,Penrhyn Road junction with Penrhyn Gardens,2017-05-08,07:50:00,Kingston upon Thames, PedalCycle,2017
312327,51.403003,-0.256541,High Street junction with Dukes Avenue,2017-02-09,09:05:00,Kingston upon Thames, PedalCycle,2017
730954,51.403081,-0.192243,On London Road Near The Junction With Abbotsbury Road Morden Su,2019-08-01,01:04:00,Merton, PedalCycle,2019
362441,51.403333,-0.273982,On St Johns Road Near The Junction With Kingston Road,2019-09-09,14:51:00,Kingston upon Thames, PedalCycle,2019
338451,51.403551,-0.191822,Morden Road junction with Kenley Road,2018-11-20,05:30:00,Merton, PedalCycle,2018
369199,51.403608,-0.306378,On Woodbines Avenue Near The Junction With Milner Road,2019-12-08,14:05:00,Kingston upon Thames, PedalCycle,2019
348828,51.403638,-0.160418,Location Uncertain On Commonside east Mitcham Near The Junctio,2019-02-20,12:50:00,Merton, PedalCycle,2019
312856,51.403711,-0.34249,Hampton Court Bridge 80 metres north of junction with Bridge Road The Nearest Classifi,2017-06-19,18:00:00,Richmond upon Thames, PedalCycle,2017
309943,51.403749,0.02687,Rochester Avenue 1 metres south of junction with Forde Avenue,2017-06-07,09:02:00,Bromley, PedalCycle,2017
338214,51.40376,-0.164784,Elmwood Road 5 metres west of junction with Whitford Gardens,2018-06-07,12:30:00,Merton, PedalCycle,2018
366695,51.403767,-0.035413,On Croydon Road Br3 Near The Junction With Croydon Road,2019-11-06,10:05:00,Bromley, PedalCycle,2019
349349,51.403787,-0.275489,On Kingston Road Near The Junction With Avenue Terrace,2019-02-27,08:30:00,Kingston upon Thames, PedalCycle,2019
338186,51.4038,-0.213953,Martin Way junction with Cannon Hill Lane,2018-05-28,11:06:00,Merton, PedalCycle,2018
338474,51.403803,-0.214097,Cannon Hill Lane junction with Martin Way,2018-12-05,08:50:00,Merton, PedalCycle,2018
312453,51.403829,-0.275919,Kingston Road junction with Dickerage Road,2017-06-23,15:30:00,Kingston upon Thames, PedalCycle,2017
354808,51.403846,-0.176081,On Church Road 6 metres north of The Junction With Chantry Way,2019-05-21,08:00:00,Merton, PedalCycle,2019
352985,51.403871,-0.21385,On Martin Way Near The Junction With Cannon Hill Lane,2019-04-26,07:00:00,Merton, PedalCycle,2019
363102,51.403895,-0.1369,On Manor Road Near The Junction With Rowan Road,2019-09-18,19:21:00,Merton, PedalCycle,2019
336050,51.403933,0.113146,Sevenoaks Way 100 metres north of junction with Broomwood Road,2018-02-10,19:25:00,Bromley, PedalCycle,2018
310251,51.403991,0.038814,Bickley Road junction with Bird In Hand Lane,2017-10-12,07:35:00,Bromley, PedalCycle,2017
352497,51.404081,-0.151443,On Cedars Avenue Near The Junction With Tamworth Lane,2019-04-17,09:50:00,Merton, PedalCycle,2019
338314,51.404088,-0.191657,Morden Road Sw19 50 metres north of junction with Kenley Road,2018-08-22,14:20:00,Merton, PedalCycle,2018
310584,51.404123,-0.119623,London Road junction with Ederline Avenue,2017-03-02,19:43:00,Croydon, PedalCycle,2017
357484,51.404293,-0.068144,On Penge Road Near The Junction With Selby Road,2019-06-29,13:30:00,Bromley, PedalCycle,2019
312504,51.404362,-0.257208,Coombe Road 50 metres south of junction with Acacia Road,2017-08-26,07:59:00,Kingston upon Thames, PedalCycle,2017
336280,51.40437,-0.025294,Manor Way 99 metres south of junction with Greenways,2018-06-22,07:30:00,Bromley, PedalCycle,2018
361349,51.404716,-0.265332,On Elm Road Near The Junction With Chestnut Grove,2019-08-24,15:05:00,Kingston upon Thames, PedalCycle,2019
312268,51.404793,-0.133399,Northborough Road junction with Lyndhurst Avenue,2017-12-20,14:45:00,Merton, PedalCycle,2017
310011,51.404805,0.09967,Mickleham Road 60 metres west of junction with Breakspears Drive,2017-06-20,17:30:00,Bromley, PedalCycle,2017
360607,51.404807,-0.2654,On Elm Road Near The Junction With Chestnut Grove,2019-08-13,07:50:00,Kingston upon Thames, PedalCycle,2019
363067,51.404934,-0.056341,On Elmers End Road Se20 Near The Junction With Birkbeck Road Se2,2019-09-17,20:14:00,Bromley, PedalCycle,2019
311890,51.404957,-0.236912,Bushey Road junction with A3 Slip Road,2017-03-15,19:20:00,Merton, PedalCycle,2017
336971,51.405121,-0.120157,London Road 21 metres north of junction with Pollards Hill north,2018-04-20,18:20:00,Croydon, PedalCycle,2018
339088,51.405141,-0.341863,Hampton Court Road Molesey Kt8 junction with Hampton Court Road,2018-08-02,12:10:00,Richmond upon Thames, PedalCycle,2018
336092,51.405143,0.120822,Sandy Lane junction with Golf Course Entrance,2018-03-07,18:00:00,Bromley, PedalCycle,2018
310318,51.405217,0.035562,Widmore Road junction with Tylney Road,2017-11-21,06:30:00,Bromley, PedalCycle,2017
312701,51.405232,-0.342003,Hampton Court Road junction with Hampton Court Way,2017-02-20,11:50:00,Richmond upon Thames, PedalCycle,2017
365242,51.405341,-0.152082,On Tamworth Lane 22 metres north of The Junction With Esquiline L,2019-10-17,07:55:00,Merton, PedalCycle,2019
310216,51.405402,0.035282,Widmore Road junction with Tylney Road,2017-10-14,11:16:00,Bromley, PedalCycle,2017
312298,51.405411,-0.304183,Penryhn Road junction with The Bittoms,2017-01-19,18:00:00,Kingston upon Thames, PedalCycle,2017
355419,51.405518,-0.152449,On Tamworth Lane Mitcham Surrey 100 metres east of The Junction,2019-06-01,15:35:00,Merton, PedalCycle,2019
367552,51.405632,0.001043,On Shortlands Road Near The Junction With Valley Road,2019-10-23,07:40:00,Bromley, PedalCycle,2019
369724,51.405694,-0.308228,On High Street 30 metres north of The Junction With south Road,2019-12-15,11:45:00,Kingston upon Thames, PedalCycle,2019
351646,51.405746,-0.103712,On Parchmore Road 45 metres north of The Junction With Hallowell,2019-04-03,18:00:00,Croydon, PedalCycle,2019
309853,51.405804,-0.057296,Elmers End Road junction with Marlow Road,2017-04-23,16:15:00,Bromley, PedalCycle,2017
338614,51.405878,-0.28073,Kingston Road 30 metres south east of junction with Jack Goodchild Way,2018-05-04,09:30:00,Kingston upon Thames, PedalCycle,2018
309724,51.405893,0.10921,Walsingham Road junction with Broom Avenue,2017-02-27,17:15:00,Bromley, PedalCycle,2017
350642,51.406011,-0.139302,On Rowan Road Near The Junction With Standford Way,2019-03-20,08:32:00,Merton, PedalCycle,2019
312034,51.406022,-0.1657,Raleigh Gardens junction with western Road,2017-07-05,08:10:00,Merton, PedalCycle,2017
338717,51.406036,-0.303873,A240 Penrhyn Road junction with Denmark Road,2018-08-21,08:43:00,Kingston upon Thames, PedalCycle,2018
312513,51.406038,-0.304016,Demark Road junction with Penrhyn Road,2017-09-04,19:20:00,Kingston upon Thames, PedalCycle,2017
338817,51.406171,-0.270079,Mount Pleasant Road 50 metres east of junction with The Cresent,2018-07-22,12:50:00,Kingston upon Thames, PedalCycle,2018
338552,51.406173,-0.270223,Mount Pleasant Road 21 metres south of junction with N/A,2018-02-11,12:07:00,Kingston upon Thames, PedalCycle,2018
729016,51.406272,-0.340471,On Hampton Court Palace (Stop C) 143 metres south of The Junction,2019-07-04,12:30:00,Richmond upon Thames, PedalCycle,2019
312046,51.40629,-0.165545,Holborn Way junction with A236 western Road,2017-06-29,19:20:00,Merton, PedalCycle,2017
729616,51.406319,0.018644,On Widmore Road Near The Junction With Tweedy Road,2019-07-12,19:59:00,Bromley, PedalCycle,2019
310044,51.406328,0.002396,Beckenham Lane Br2 50 metres east of junction with Shortlands Road,2017-07-18,07:50:00,Bromley, PedalCycle,2017
337207,51.406341,-0.084449,Cypress Road junction with south Norwood Hill,2018-07-27,17:35:00,Croydon, PedalCycle,2018
368418,51.406404,-0.084461,On south Norwood Hill Near The Junction With Cypress Road,2019-11-28,17:30:00,Croydon, PedalCycle,2019
312066,51.40646,-0.15346,Acacia Road junction with Tamworth Lane,2017-07-20,15:50:00,Merton, PedalCycle,2017
312204,51.406464,-0.153748,Tamworth Lane Mitcham Surrey junction with Acacia Road,2017-11-15,15:05:00,Merton, PedalCycle,2017
312691,51.406507,-0.336781,Hampton Court Road junction with Chestnut Avenue,2017-02-15,10:18:00,Richmond upon Thames, PedalCycle,2017
339064,51.406513,-0.337212,A308 Hampton Court Road junction with Chestnut Avenue,2018-07-05,17:30:00,Richmond upon Thames, PedalCycle,2018
312915,51.406524,-0.337931,Hampton Court Road junction with Bushy Park,2017-08-15,08:10:00,Richmond upon Thames, PedalCycle,2017
310145,51.406535,-0.057984,Elmers End Road junction with Bourdon Road,2017-09-13,16:40:00,Bromley, PedalCycle,2017
309980,51.406608,0.11442,Main Road 45 metres north of junction with New Mill Road,2017-06-21,06:00:00,Bromley, PedalCycle,2017
349185,51.406636,-0.120987,On Norbury Court Road Near The Junction With London Road,2019-02-22,13:10:00,Croydon, PedalCycle,2019
309650,51.406653,0.004423,Beckenham Lane junction with Recreation Road,2017-02-01,13:09:00,Bromley, PedalCycle,2017
310264,51.406704,-0.01973,Wickham Road 60 metres north of junction with Chancery Lane,2017-10-18,19:10:00,Bromley, PedalCycle,2017
336868,51.406861,-0.083277,Cypress Road London 71 metres south of junction with south Norwood Hill,2018-03-04,14:36:00,Croydon, PedalCycle,2018
336188,51.406927,-0.006348,Bromley Road junction with Downs Bridge Road,2018-05-05,15:00:00,Bromley, PedalCycle,2018
726325,51.407218,-0.283786,On Cambridge Road 130 metres south of The Junction With Hampden R,2019-05-16,06:00:00,Kingston upon Thames, PedalCycle,2019
367476,51.407308,-0.222271,On Bushey Road Near The Junction With Private Road,2019-11-15,21:00:00,Merton, PedalCycle,2019
352100,51.407313,-0.304544,On Saint James's Road Near The Junction With Kingston Hall Road,2019-04-10,16:26:00,Kingston upon Thames, PedalCycle,2019
339038,51.407326,-0.324817,Hampton Court Road 1000 metres east of junction with Chestnut Avenue,2018-07-08,16:40:00,Richmond upon Thames, PedalCycle,2018
312703,51.407369,-0.346815,Hampton Court Road 500 metres west of junction with Hampton Court Bridge The Nearest,2017-02-20,15:10:00,Richmond upon Thames, PedalCycle,2017
338199,51.407424,-0.192244,Morden Road junction with Dorset Road,2018-06-07,17:20:00,Merton, PedalCycle,2018
313081,51.407487,-0.323517,Hampton Court Road 940 metres east of junction with Chestnut Avenue,2017-12-24,09:00:00,Richmond upon Thames, PedalCycle,2017
338070,51.407556,-0.154567,Eastfields Road Mitcham Surrey junction with Tamworth Lane,2018-02-16,17:38:00,Merton, PedalCycle,2018
338652,51.40756,-0.294255,Villiers Road 44 metres south of junction with Faifield south,2018-06-11,18:50:00,Kingston upon Thames, PedalCycle,2018
338411,51.407563,-0.163553,London Road 24 metres north of junction with St Mark's Road,2018-10-28,07:45:00,Merton, PedalCycle,2018
338565,51.407622,-0.30784,High Street junction with Kingston Hall Road,2018-02-25,11:55:00,Kingston upon Thames, PedalCycle,2018
338744,51.407636,-0.284115,Cambridge Road 50 metres west of junction with Waters Road The Nearest Classified Road,2018-09-26,12:30:00,Kingston upon Thames, PedalCycle,2018
368209,51.407654,-0.025411,On Manor Road Near The Junction With Kelsey Park Road,2019-11-26,08:35:00,Bromley, PedalCycle,2019
310032,51.407682,-0.035073,Hayne Road junction with Beckenham Road,2017-07-05,18:30:00,Bromley, PedalCycle,2017
310379,51.407702,-0.025582,High Street junction with High Street,2017-12-15,13:30:00,Bromley, PedalCycle,2017
338344,51.40772,-0.235225,Burlington Road 198 metres north of junction with Bushy Road The Nearest Classified Ro,2018-09-06,18:15:00,Merton, PedalCycle,2018
338238,51.407731,-0.154272,Grove Road junction with Tamworth Lane,2018-07-06,19:25:00,Merton, PedalCycle,2018
350297,51.407778,-0.284584,On Hampden Road Near The Junction With Cambridge Road,2019-03-13,08:20:00,Kingston upon Thames, PedalCycle,2019
336284,51.407782,-0.046428,Blandford Road 200 metres west of junction with Churchfields Road,2018-06-23,17:07:00,Bromley, PedalCycle,2018
338578,51.407879,-0.294602,Villiers Road junction with Hawks Road,2018-03-13,07:30:00,Kingston upon Thames, PedalCycle,2018
312498,51.407889,-0.307686,High Street Kingston junction with Kingston Hall Road,2017-08-16,18:00:00,Kingston upon Thames, PedalCycle,2017
367934,51.407894,-0.034877,On Hayne Road Near The Junction With Beckenham Road,2019-11-22,09:15:00,Bromley, PedalCycle,2019
368587,51.407894,-0.284537,On Cambridge Road Near The Junction With Hampden Road,2019-11-30,17:30:00,Kingston upon Thames, PedalCycle,2019
338548,51.407931,-0.28455,Cambridge Road junction with Hampden Road,2018-02-08,22:20:00,Kingston upon Thames, PedalCycle,2018
728849,51.407994,-0.294425,On Hawks Road Near The Junction With Fairfield Street,2019-07-02,07:50:00,Kingston upon Thames, PedalCycle,2019
310811,51.408035,-0.111267,Highbury Avenue 21 metres north of junction with westminster Avenue Nr Ladals Day Nursery,2017-05-23,18:10:00,Croydon, PedalCycle,2017
311089,51.408039,-0.100339,Northwood Road 35 metres north east of junction with Osborne Road,2017-09-19,17:20:00,Croydon, PedalCycle,2017
729578,51.408061,-0.163217,On London Road Near The Junction With Downe Road,2019-07-11,16:20:00,Merton, PedalCycle,2019
310356,51.408127,0.013906,College Road 80 metres south of junction with Tweedy Road,2017-12-07,16:30:00,Bromley, PedalCycle,2017
338772,51.408134,-0.293586,Hawks Road 30 metres west of junction with Bonner Hill Road,2018-10-24,13:38:00,Kingston upon Thames, PedalCycle,2018
338152,51.408141,-0.16317,London Road junction with Downe Road,2018-05-02,16:28:00,Merton, PedalCycle,2018
312445,51.408332,-0.307239,High Street Kingston 55 metres north of junction with Kingston Hall Road,2017-06-20,09:00:00,Kingston upon Thames, PedalCycle,2017
309926,51.408352,-0.037489,Beckenham Road junction with Turners Meadow Way,2017-05-30,19:30:00,Bromley, PedalCycle,2017
368780,51.408377,-0.034698,On Hayne Road Near The Junction With Garden Walk,2019-12-03,06:55:00,Bromley, PedalCycle,2019
312485,51.408413,-0.307207,High Street junction with Wadbrook Street,2017-08-01,07:20:00,Kingston upon Thames, PedalCycle,2017
336159,51.408463,-0.038778,Beckenham Road junction with Queens Road,2018-04-17,16:40:00,Bromley, PedalCycle,2018
348413,51.408466,-0.307133,On High Street Near The Junction With Wadbrook Street,2019-02-14,07:23:00,Kingston upon Thames, PedalCycle,2019
310468,51.408477,-0.121961,London Road junction with Craigness Avenue,2017-01-21,08:50:00,Croydon, PedalCycle,2017
353911,51.408493,-0.154644,On Rialto Road 50 metres north of The Junction With eastfields Ro,2019-05-09,14:17:00,Merton, PedalCycle,2019
312088,51.408596,-0.215923,Kingston Road junction with Kingston Road Sw20,2017-07-27,22:25:00,Merton, PedalCycle,2017
312538,51.408653,-0.273724,Dickerage Road junction with Kenley Road,2017-09-24,07:40:00,Kingston upon Thames, PedalCycle,2017
311950,51.408718,-0.229866,Grand Drive junction with Approach Road,2017-04-28,17:45:00,Merton, PedalCycle,2017
336499,51.408803,-0.059182,Croydon Road junction with Elmers End Road,2018-09-25,08:47:00,Bromley, PedalCycle,2018
309881,51.408924,0.075414,Church Lane junction with Manor Park Road,2017-05-06,16:50:00,Bromley, PedalCycle,2017
335620,51.408967,0.147889,Maidstone Road 200 metres west of junction with Old Maidstone Road,2018-04-18,17:40:00,Bexley, PedalCycle,2018
338015,51.408981,-0.142287,Rowan Road junction with Meopham Road,2018-01-04,06:50:00,Merton, PedalCycle,2018
336574,51.409008,0.02437,Park Road junction with Freelands Road,2018-11-06,18:10:00,Bromley, PedalCycle,2018
310232,51.409068,0.112664,Midfield Way junction with Sevenoaks Way,2017-10-17,18:40:00,Bromley, PedalCycle,2017
310074,51.409098,0.024374,Freelands Road junction with Upper Park Road,2017-07-31,07:30:00,Bromley, PedalCycle,2017
337161,51.409112,-0.122294,London Road junction with Stanford Road,2018-06-21,07:50:00,Croydon, PedalCycle,2018
309683,51.409162,-0.042918,Churchfields Road junction with Beckenham Road,2017-02-07,06:54:00,Bromley, PedalCycle,2017
338082,51.409185,-0.178227,Haslemere Avenue junction with Church Road,2018-02-28,09:00:00,Merton, PedalCycle,2018
338915,51.409215,-0.350199,Hampton Court Road 751 metres north of junction with Hampton Court Roundabout,2018-04-01,14:00:00,Richmond upon Thames, PedalCycle,2018
350919,51.409285,0.110574,On Midfield Way 100 metres west of The Junction With Sevenoaks Wa,2019-03-24,14:10:00,Bromley, PedalCycle,2019
312003,51.409359,-0.212874,Kingston Road 25 metres south of junction with Sandringham Avenue,2017-06-07,19:10:00,Merton, PedalCycle,2017
310046,51.409392,-0.062177,Anerley Road junction with Maple Road,2017-07-23,11:00:00,Bromley, PedalCycle,2017
338378,51.409472,-0.232137,Coombe Lane 34 metres east of junction with Durham Road The Nearest Classified Road west of,2018-10-11,11:36:00,Merton, PedalCycle,2018
312154,51.40948,-0.232712,Coombe Lane junction with Durham Road,2017-10-13,07:55:00,Merton, PedalCycle,2017
338024,51.409518,-0.22926,Coombe Lane junction with Rayne Park Bridge,2018-01-16,07:35:00,Merton, PedalCycle,2018
369399,51.409564,-0.231731,On Coombe Lane Near The Junction With Amity Grove,2019-12-11,07:20:00,Merton, PedalCycle,2019
338712,51.409591,-0.288643,Cambridge Road junction with Hawks Road,2018-08-17,18:10:00,Kingston upon Thames, PedalCycle,2018
